time,x_vel_mps,y_vel_mps,z_vel_mps,roll_vel_rps,pitch_vel_rps,yaw_vel_rps,roll_angle,pitch_angle,yaw_angle,x_pos_ned,y_pos_ned,z_pos_ned,altitude_m,speed_of_sound_mps,air_density,mach,alpha_rad,beta_rad,true_airspeed_mps,c_phi,c_theta,c_psi,s_phi,s_theta,s_psi,t_theta,dcm_b2i_11,dcm_b2i_12,dcm_b2i_13,dcm_b2i_21,dcm_b2i_22,dcm_b2i_23,dcm_b2i_31,dcm_b2i_32,dcm_b2i_33,vx_ned_mps,vy_ned_mps,vz_ned_mps,roll_dcm_rad,pitch_dcm_rad,yaw_dcm_rad
0,1e-10,0,0,0.174533,0.349066,0.523599,0,0,0,0,0,-9146.34,9146.34,303.163,0.458189,0.000322552,1.57429,0.00174971,0.0977858,0.999998,0.999994,0.999986,0.00174972,0.00348997,0.0052372,0.00348999,0.99998,-0.00523109,0.00349908,0.00523717,0.999985,-0.00173142,-0.00348997,0.00174971,0.999992,1.01047e-10,2.67995e-12,0.0977858,0.00174972,0.00348997,0.00523723
0.01,-0.000341269,0.000171097,0.0977851,0.173583,0.349843,0.523234,0.00174972,0.00348997,0.00523723,-6.28495e-12,3.19014e-12,-9146.34,9146.34,303.163,0.458189,0.000645103,1.57777,0.00350814,0.195572,0.999994,0.999976,0.999945,0.00350822,0.00697846,0.0104768,0.00697863,0.999921,-0.0104523,0.00701479,0.0104766,0.999939,-0.00343491,-0.00697846,0.00350813,0.999969,1.02093e-10,5.36616e-12,0.195572,0.00350822,0.00697852,0.010477
0.02,-0.00136479,0.000686091,0.195566,0.172632,0.350616,0.52287,0.00350822,0.00697852,0.010477,-1.25765e-11,6.38955e-12,-9146.34,9146.34,303.163,0.458189,0.000967655,1.58126,0.00527522,0.293358,0.999986,0.999945,0.999876,0.00527548,0.0104653,0.0157188,0.0104659,0.999822,-0.0156634,0.0105468,0.0157179,0.999863,-0.00511033,-0.0104653,0.00527519,0.999931,1.03138e-10,8.05873e-12,0.293358,0.00527551,0.0104655,0.0157195
0.03,-0.00307009,0.00154752,0.293337,0.171679,0.351384,0.522507,0.00527551,0.0104655,0.0157195,-1.88746e-11,9.59807e-12,-9146.34,9146.33,303.163,0.458189,0.00129021,1.58475,0.00705088,0.391143,0.999975,0.999903,0.99978,0.0070515,0.0139505,0.0209632,0.0139518,0.999683,-0.0208643,0.0140949,0.0209611,0.999757,-0.00675752,-0.0139505,0.00705082,0.999878,1.04182e-10,1.07578e-11,0.391143,0.00705156,0.0139509,0.0209647
0.04,-0.00545664,0.00275788,0.391096,0.170725,0.352147,0.522146,0.00705156,0.0139509,0.0209647,-2.51794e-11,1.28155e-11,-9146.33,9146.33,303.163,0.458189,0.00161276,1.58823,0.00883505,0.488929,0.999961,0.999848,0.999656,0.00883628,0.0174337,0.0262098,0.0174364,0.999505,-0.0260548,0.0176587,0.0262059,0.999621,-0.00837632,-0.0174337,0.00883493,0.999809,1.05224e-10,1.34633e-11,0.488929,0.00883639,0.0174346,0.0262128
0.05,-0.00852387,0.00431966,0.488836,0.169769,0.352905,0.521786,0.00883639,0.0174346,0.0262128,-3.14908e-11,1.60417e-11,-9146.33,9146.32,303.163,0.45819,0.00193531,1.59171,0.0106277,0.586715,0.999944,0.999781,0.999505,0.0106298,0.020915,0.0314588,0.0209196,0.999286,-0.0312348,0.0212379,0.0314519,0.999456,-0.00996661,-0.020915,0.0106275,0.999725,1.06264e-10,1.61756e-11,0.586715,0.01063,0.0209165,0.031464
0.06,-0.0122711,0.0062353,0.586554,0.168813,0.353659,0.521427,0.01063,0.0209165,0.031464,-3.78089e-11,1.92766e-11,-9146.32,9146.32,303.164,0.45819,0.00225786,1.59519,0.0124287,0.684501,0.999923,0.999702,0.999326,0.012432,0.0243941,0.0367101,0.0244014,0.999029,-0.0364042,0.0248322,0.0366991,0.99926,-0.0115282,-0.0243941,0.0124283,0.999625,1.07303e-10,1.88945e-11,0.684501,0.0124324,0.0243965,0.0367183
0.07,-0.0166978,0.00850721,0.684244,0.167854,0.354408,0.52107,0.0124324,0.0243965,0.0367183,-4.41336e-11,2.25198e-11,-9146.32,9146.31,303.164,0.45819,0.00258041,1.59867,0.014238,0.782287,0.999899,0.999612,0.999119,0.014243,0.0278709,0.0419636,0.0278818,0.998731,-0.0415627,0.0284412,0.0419473,0.999034,-0.013061,-0.0278709,0.0142375,0.99951,1.0834e-10,2.16203e-11,0.782287,0.0142435,0.0278745,0.0419759
0.08,-0.0218031,0.0111378,0.781904,0.166895,0.355152,0.520713,0.0142435,0.0278745,0.0419759,-5.0465e-11,2.57713e-11,-9146.31,9146.3,303.164,0.458191,0.00290296,1.60215,0.0160555,0.880073,0.999871,0.999509,0.998885,0.0160627,0.0313453,0.0472193,0.0313608,0.998394,-0.0467102,0.0320648,0.0471961,0.998779,-0.0145649,-0.0313453,0.0160548,0.99938,1.09375e-10,2.4353e-11,0.880073,0.0160634,0.0313505,0.0472368
0.09,-0.0275862,0.0141294,0.879527,0.165934,0.355891,0.520358,0.0160634,0.0313505,0.0472368,-5.6803e-11,2.90309e-11,-9146.3,9146.29,303.164,0.458191,0.00322551,1.60563,0.0178812,0.977858,0.99984,0.999394,0.998622,0.0178911,0.0348172,0.0524771,0.0348383,0.998017,-0.0518467,0.0357025,0.0524453,0.998495,-0.0160397,-0.0348172,0.0178803,0.999234,1.10408e-10,2.70927e-11,0.977858,0.0178921,0.0348242,0.0525013
0.1,-0.0340463,0.0174844,0.977109,0.164971,0.356626,0.520005,0.0178921,0.0348242,0.0525013,-6.31477e-11,3.22985e-11,-9146.29,9146.28,303.164,0.458192,0.00354806,1.6091,0.0197151,1.07564,0.999805,0.999267,0.998332,0.0197283,0.0382864,0.0577372,0.0383145,0.9976,-0.0569719,0.0393541,0.0576948,0.998181,-0.0174852,-0.0382864,0.0197138,0.999072,1.11439e-10,2.98395e-11,1.07564,0.0197295,0.0382958,0.0577693
0.11,-0.0411825,0.021205,1.07465,0.164008,0.357355,0.519652,0.0197295,0.0382958,0.0577693,-6.94991e-11,3.55738e-11,-9146.28,9146.27,303.164,0.458192,0.00387062,1.61257,0.021557,1.17343,0.999767,0.999128,0.998014,0.0215741,0.0417528,0.0629993,0.0417892,0.997143,-0.0620856,0.0430193,0.0629444,0.997838,-0.0189015,-0.0417528,0.0215553,0.998895,1.12468e-10,3.25935e-11,1.17343,0.0215758,0.0417649,0.063041
0.12,-0.0489939,0.0252936,1.17213,0.163043,0.35808,0.519301,0.0215758,0.0417649,0.063041,-7.58571e-11,3.88567e-11,-9146.27,9146.26,303.164,0.458193,0.00419317,1.61604,0.0234068,1.27122,0.999726,0.998977,0.997667,0.0234286,0.0452162,0.0682635,0.0452625,0.996647,-0.0671879,0.0466976,0.0681937,0.997466,-0.0202882,-0.0452162,0.0234047,0.998703,1.13495e-10,3.53548e-11,1.27122,0.0234308,0.0452316,0.0683166
0.13,-0.0574795,0.0297524,1.26957,0.162076,0.3588,0.518952,0.0234308,0.0452316,0.0683166,-8.22218e-11,4.21471e-11,-9146.26,9146.25,303.164,0.458194,0.00451572,1.61951,0.0252646,1.369,0.99968,0.998815,0.997293,0.0252919,0.0486765,0.0735298,0.0487343,0.996111,-0.0722785,0.0503889,0.0734426,0.997065,-0.0216454,-0.0486765,0.0252619,0.998495,1.1452e-10,3.81234e-11,1.369,0.0252946,0.0486957,0.0735962
0.14,-0.0666382,0.0345836,1.36694,0.161109,0.359516,0.518604,0.0252946,0.0486957,0.0735962,-8.85932e-11,4.54447e-11,-9146.25,9146.23,303.164,0.458195,0.00483827,1.62297,0.0271302,1.46679,0.999631,0.99864,0.996891,0.0271638,0.0521336,0.078798,0.0522046,0.995535,-0.0773572,0.0540928,0.0786909,0.996634,-0.0229728,-0.0521336,0.0271269,0.998272,1.15542e-10,4.08995e-11,1.46679,0.0271671,0.0521572,0.0788798
0.15,-0.0764689,0.0397893,1.46425,0.16014,0.360226,0.518257,0.0271671,0.0521572,0.0788798,-9.49712e-11,4.87495e-11,-9146.23,9146.22,303.164,0.458196,0.00516082,1.62644,0.0290036,1.56457,0.999578,0.998454,0.99646,0.0290444,0.0555874,0.0840683,0.0556734,0.994919,-0.082424,0.0578089,0.0839383,0.996175,-0.0242704,-0.0555874,0.0289995,0.998033,1.16561e-10,4.36831e-11,1.56457,0.0290485,0.055616,0.0841676
0.16,-0.0869705,0.0453718,1.5615,0.15917,0.360932,0.517911,0.0290485,0.055616,0.0841676,-1.01356e-10,5.20612e-11,-9146.22,9146.2,303.164,0.458196,0.00548337,1.6299,0.0308847,1.66236,0.999521,0.998256,0.996001,0.0309337,0.0590376,0.0893405,0.0591408,0.994264,-0.0874787,0.061537,0.0891846,0.995688,-0.0255381,-0.0590376,0.0308797,0.997778,1.17578e-10,4.64744e-11,1.66236,0.0309386,0.059072,0.0894597
0.17,-0.0981417,0.0513332,1.65867,0.158198,0.361633,0.517567,0.0309386,0.059072,0.0894597,-1.07747e-10,5.53797e-11,-9146.2,9146.18,303.164,0.458197,0.00580592,1.63335,0.0327734,1.76015,0.999461,0.998046,0.995514,0.0328317,0.0624843,0.0946145,0.0626066,0.993569,-0.0925213,0.0652768,0.0944296,0.995171,-0.0267757,-0.0624843,0.0327675,0.997508,1.18592e-10,4.92733e-11,1.76015,0.0328376,0.062525,0.0947563
0.18,-0.109981,0.0576756,1.75576,0.157226,0.36233,0.517225,0.0328376,0.062525,0.0947563,-1.14145e-10,5.87048e-11,-9146.18,9146.16,303.164,0.458198,0.00612847,1.63681,0.0346697,1.85793,0.999396,0.997824,0.994998,0.0347383,0.0659271,0.0998904,0.0660709,0.992834,-0.0975514,0.0690278,0.0996731,0.994627,-0.0279831,-0.0659271,0.0346628,0.997222,1.19603e-10,5.20802e-11,1.85793,0.0347453,0.065975,0.100057
0.19,-0.122488,0.064401,1.85277,0.156252,0.363021,0.516884,0.0347453,0.065975,0.100057,-1.20549e-10,6.20364e-11,-9146.16,9146.15,303.164,0.458199,0.00645101,1.64026,0.0365736,1.95572,0.999328,0.997591,0.994454,0.0366537,0.0693661,0.105168,0.0695336,0.992059,-0.102569,0.0727899,0.104915,0.994054,-0.0291602,-0.0693661,0.0365654,0.996921,1.20611e-10,5.48948e-11,1.95572,0.0366619,0.0694219,0.105363
0.2,-0.135661,0.0715116,1.9497,0.155277,0.363708,0.516544,0.0366619,0.0694219,0.105363,-1.2696e-10,6.53743e-11,-9146.15,9146.13,303.164,0.458201,0.00677356,1.64372,0.0384848,2.0535,0.999256,0.997346,0.993882,0.0385777,0.0728011,0.110448,0.0729948,0.991245,-0.107574,0.0765627,0.110155,0.993452,-0.030307,-0.0728011,0.0384753,0.996604,1.21616e-10,5.77174e-11,2.0535,0.0385873,0.0728656,0.110673
0.21,-0.149497,0.0790092,2.04653,0.154301,0.36439,0.516206,0.0385873,0.0728656,0.110673,-1.33378e-10,6.87184e-11,-9146.13,9146.1,303.164,0.458202,0.00709611,1.64716,0.0404035,2.15129,0.999179,0.99709,0.993281,0.0405104,0.0762319,0.115729,0.0764544,0.99039,-0.112567,0.0803458,0.115392,0.992823,-0.0314232,-0.0762319,0.0403925,0.996272,1.22617e-10,6.05481e-11,2.15129,0.0405215,0.076306,0.115989
0.22,-0.163997,0.086896,2.14327,0.153324,0.365068,0.515869,0.0405215,0.076306,0.115989,-1.39802e-10,7.20685e-11,-9146.1,9146.08,303.165,0.458203,0.00741866,1.65061,0.0423295,2.24907,0.999099,0.996822,0.992651,0.0424518,0.0796585,0.121012,0.0799124,0.989497,-0.117546,0.0841389,0.120627,0.992165,-0.0325089,-0.0796585,0.0423169,0.995924,1.23615e-10,6.33869e-11,2.24907,0.0424645,0.0797429,0.121309
0.23,-0.179158,0.0951738,2.23991,0.152345,0.36574,0.515534,0.0424645,0.0797429,0.121309,-1.46232e-10,7.54243e-11,-9146.08,9146.06,303.165,0.458204,0.00774121,1.65405,0.0442628,2.34686,0.999014,0.996543,0.991993,0.0444018,0.0830806,0.126296,0.0833688,0.988563,-0.122512,0.0879418,0.12586,0.99148,-0.0335638,-0.0830806,0.0442483,0.99556,1.2461e-10,6.62339e-11,2.34686,0.0444164,0.0831764,0.126635
0.24,-0.194978,0.103845,2.33644,0.151365,0.366408,0.515201,0.0444164,0.0831764,0.126635,-1.52669e-10,7.87859e-11,-9146.06,9146.04,303.165,0.458206,0.00806376,1.6575,0.0462032,2.44465,0.998925,0.996252,0.991305,0.0463605,0.0864981,0.131583,0.0868235,0.98759,-0.127466,0.0917541,0.131089,0.990767,-0.034588,-0.0864981,0.0461868,0.995181,1.25601e-10,6.90892e-11,2.44465,0.0463772,0.0866063,0.131965
0.25,-0.211457,0.11291,2.43287,0.150384,0.367071,0.514869,0.0463772,0.0866063,0.131965,-1.59113e-10,8.2153e-11,-9146.04,9146.01,303.165,0.458207,0.0083863,1.66093,0.0481508,2.54243,0.998832,0.99595,0.990589,0.0483279,0.089911,0.13687,0.0902766,0.986577,-0.132406,0.0955754,0.136316,0.990026,-0.0355813,-0.089911,0.0481322,0.994786,1.26588e-10,7.1953e-11,2.54243,0.0483468,0.0900325,0.137301
0.26,-0.228593,0.122373,2.52918,0.149402,0.36773,0.514538,0.0483468,0.0900325,0.137301,-1.65563e-10,8.55254e-11,-9146.01,9145.99,303.165,0.458208,0.00870885,1.66437,0.0501054,2.64022,0.998734,0.995636,0.989844,0.050304,0.093319,0.14216,0.093728,0.985524,-0.137333,0.0994055,0.141539,0.989258,-0.0365437,-0.093319,0.0500845,0.994376,1.27571e-10,7.48251e-11,2.64022,0.0503252,0.093455,0.142643
0.27,-0.246382,0.132234,2.62537,0.148419,0.368383,0.51421,0.0503252,0.093455,0.142643,-1.72019e-10,8.89031e-11,-9145.99,9145.96,303.165,0.45821,0.0090314,1.6678,0.0520671,2.738,0.998632,0.995311,0.989069,0.0522887,0.0967221,0.14745,0.0971777,0.984432,-0.142246,0.103244,0.146759,0.988462,-0.037475,-0.0967221,0.0520436,0.99395,1.28551e-10,7.77058e-11,2.738,0.0523126,0.0968735,0.14799
0.28,-0.264825,0.142495,2.72144,0.147435,0.369032,0.513882,0.0523126,0.0968735,0.14799,-1.78481e-10,9.22858e-11,-9145.96,9145.93,303.165,0.458211,0.00935394,1.67123,0.0540357,2.83579,0.998526,0.994975,0.988266,0.0542821,0.10012,0.152742,0.100626,0.9833,-0.147146,0.107091,0.151975,0.987639,-0.0383752,-0.10012,0.0540094,0.993508,1.29526e-10,8.05951e-11,2.83579,0.0543088,0.100288,0.153342
0.29,-0.283919,0.153159,2.81738,0.14645,0.369677,0.513557,0.0543088,0.100288,0.153342,-1.8495e-10,9.56734e-11,-9145.93,9145.9,303.165,0.458213,0.00967649,1.67466,0.0560112,2.93358,0.998415,0.994628,0.987433,0.0562842,0.103513,0.158036,0.104072,0.982129,-0.152032,0.110945,0.157187,0.986789,-0.0392441,-0.103513,0.0559819,0.993051,1.30496e-10,8.34931e-11,2.93358,0.056314,0.103699,0.158701
0.3,-0.303663,0.164227,2.91319,0.145463,0.370316,0.513233,0.056314,0.103699,0.158701,-1.91425e-10,9.90658e-11,-9145.9,9145.87,303.165,0.458215,0.00999903,1.67808,0.0579934,3.03136,0.998299,0.99427,0.986571,0.058295,0.1069,0.16333,0.107516,0.980918,-0.156904,0.114807,0.162394,0.985912,-0.0400818,-0.1069,0.0579609,0.992579,1.31463e-10,8.63999e-11,3.03136,0.0583281,0.107105,0.164065
0.31,-0.324053,0.175701,3.00887,0.144476,0.370951,0.51291,0.0583281,0.107105,0.164065,-1.97906e-10,1.02463e-10,-9145.87,9145.84,303.166,0.458216,0.0103216,1.6815,0.0599825,3.12915,0.998179,0.9939,0.98568,0.0603144,0.110282,0.168626,0.110959,0.979668,-0.161763,0.118676,0.167598,0.985007,-0.0408881,-0.110282,0.0599465,0.992091,1.32424e-10,8.93155e-11,3.12915,0.0603511,0.110507,0.169436
0.32,-0.345089,0.187581,3.1044,0.143487,0.371581,0.51259,0.0603511,0.110507,0.169436,-2.04394e-10,1.05864e-10,-9145.84,9145.81,303.166,0.458218,0.0106441,1.68492,0.0619782,3.22693,0.998055,0.99352,0.984759,0.0623425,0.113658,0.173923,0.1144,0.978378,-0.166607,0.122551,0.172796,0.984076,-0.041663,-0.113658,0.0619386,0.991587,1.33381e-10,9.22401e-11,3.22693,0.062383,0.113905,0.174812
0.33,-0.366768,0.199872,3.19979,0.142498,0.372206,0.51227,0.062383,0.113905,0.174812,-2.10887e-10,1.0927e-10,-9145.81,9145.78,303.166,0.45822,0.0109667,1.68834,0.0639806,3.32472,0.997925,0.993128,0.983809,0.0643793,0.117029,0.179222,0.117839,0.977049,-0.171437,0.126434,0.17799,0.983118,-0.0424063,-0.117029,0.063937,0.991068,1.34333e-10,9.51735e-11,3.32472,0.0644239,0.117298,0.180195
0.34,-0.389089,0.212572,3.29502,0.141507,0.372827,0.511953,0.0644239,0.117298,0.180195,-2.17387e-10,1.1268e-10,-9145.78,9145.74,303.166,0.458222,0.0112892,1.69175,0.0659895,3.4225,0.997791,0.992726,0.982829,0.0664248,0.120394,0.184521,0.121276,0.97568,-0.176253,0.130322,0.183179,0.982134,-0.0431181,-0.120394,0.0659417,0.990534,1.35281e-10,9.81161e-11,3.4225,0.0664738,0.120686,0.185584
0.35,-0.412048,0.225686,3.39011,0.140515,0.373443,0.511637,0.0664738,0.120686,0.185584,-2.23892e-10,1.16094e-10,-9145.74,9145.71,303.166,0.458224,0.0116118,1.69516,0.068005,3.52029,0.997653,0.992313,0.981819,0.068479,0.123752,0.189821,0.124711,0.974272,-0.181055,0.134216,0.188362,0.981123,-0.0437983,-0.123752,0.0679526,0.989984,1.36222e-10,1.01068e-10,3.52029,0.0685326,0.12407,0.19098
0.36,-0.435644,0.239213,3.48503,0.139523,0.374054,0.511323,0.0685326,0.12407,0.19098,-2.30403e-10,1.19511e-10,-9145.71,9145.67,303.166,0.458226,0.0119343,1.69856,0.0700269,3.61808,0.997509,0.991889,0.980779,0.0705418,0.127105,0.195122,0.128144,0.972824,-0.185842,0.138116,0.19354,0.980085,-0.0444467,-0.127105,0.0699697,0.989418,1.37159e-10,1.04029e-10,3.61808,0.0706005,0.12745,0.196382
0.37,-0.459875,0.253156,3.57979,0.138529,0.37466,0.511011,0.0706005,0.12745,0.196382,-2.36921e-10,1.22933e-10,-9145.67,9145.64,303.166,0.458228,0.0122568,1.70196,0.0720552,3.71586,0.99736,0.991455,0.979709,0.0726134,0.130451,0.200424,0.131575,0.971337,-0.190615,0.14202,0.198712,0.979021,-0.0450634,-0.130451,0.0719929,0.988837,1.3809e-10,1.06999e-10,3.71586,0.0726773,0.130824,0.201791
0.38,-0.484738,0.267516,3.67438,0.137534,0.375262,0.510701,0.0726773,0.130824,0.201791,-2.43444e-10,1.26358e-10,-9145.64,9145.6,303.167,0.45823,0.0125794,1.70536,0.0740898,3.81365,0.997207,0.99101,0.978609,0.0746936,0.133791,0.205727,0.135005,0.969811,-0.195373,0.14593,0.203877,0.977932,-0.0456483,-0.133791,0.0740221,0.988241,1.39016e-10,1.09979e-10,3.81365,0.0747632,0.134193,0.207207
0.39,-0.510232,0.282294,3.7688,0.136539,0.375859,0.510392,0.0747632,0.134193,0.207207,-2.49973e-10,1.29786e-10,-9145.6,9145.56,303.167,0.458232,0.0129019,1.70876,0.0761307,3.91143,0.997048,0.990554,0.977479,0.0767825,0.137124,0.211031,0.138432,0.968246,-0.200116,0.149844,0.209037,0.976816,-0.0462014,-0.137124,0.0760572,0.98763,1.39935e-10,1.12967e-10,3.91143,0.0768582,0.137558,0.212629
0.4,-0.536353,0.297493,3.86305,0.135542,0.376451,0.510085,0.0768582,0.137558,0.212629,-2.56507e-10,1.33218e-10,-9145.56,9145.52,303.167,0.458234,0.0132245,1.71215,0.0781779,4.00922,0.996884,0.990088,0.976319,0.0788801,0.140451,0.216335,0.141857,0.966642,-0.204844,0.153762,0.21419,0.975674,-0.0467225,-0.140451,0.0780983,0.987003,1.40849e-10,1.15966e-10,4.00922,0.0789622,0.140917,0.218059
0.41,-0.563099,0.313113,3.95711,0.134544,0.377039,0.509779,0.0789622,0.140917,0.218059,-2.63047e-10,1.36652e-10,-9145.52,9145.48,303.167,0.458236,0.013547,1.71554,0.0802311,4.10701,0.996715,0.989611,0.975129,0.0809865,0.143771,0.22164,0.14528,0.964998,-0.209558,0.157684,0.219337,0.974506,-0.0472116,-0.143771,0.0801451,0.98636,1.41756e-10,1.18974e-10,4.10701,0.0810753,0.144271,0.223496
0.42,-0.590467,0.329156,4.05099,0.133546,0.377622,0.509476,0.0810753,0.144271,0.223496,-2.69593e-10,1.4009e-10,-9145.48,9145.44,303.167,0.458239,0.0138695,1.71892,0.0822905,4.20479,0.996541,0.989124,0.973908,0.0831015,0.147084,0.226945,0.148701,0.963315,-0.214256,0.16161,0.224477,0.973313,-0.0476687,-0.147084,0.0821977,0.985703,1.42658e-10,1.21991e-10,4.20479,0.0831974,0.147619,0.22894
0.43,-0.618456,0.345624,4.14467,0.132546,0.3782,0.509174,0.0831974,0.147619,0.22894,-2.76144e-10,1.43531e-10,-9145.44,9145.39,303.167,0.458241,0.0141921,1.7223,0.0843559,4.30258,0.996362,0.988627,0.972656,0.0852252,0.15039,0.232251,0.15212,0.961594,-0.218939,0.165539,0.229609,0.972094,-0.0480938,-0.15039,0.0842559,0.98503,1.43553e-10,1.25019e-10,4.30258,0.0853287,0.150962,0.234391
0.44,-0.647063,0.362518,4.23817,0.131546,0.378774,0.508874,0.0853287,0.150962,0.234391,-2.827e-10,1.46974e-10,-9145.39,9145.35,303.168,0.458243,0.0145146,1.72568,0.0864273,4.40036,0.996177,0.988119,0.971374,0.0873576,0.153688,0.237557,0.155536,0.959833,-0.223607,0.16947,0.234734,0.97085,-0.0484868,-0.153688,0.0863198,0.984342,1.44441e-10,1.28056e-10,4.40036,0.0874691,0.1543,0.23985
0.45,-0.676284,0.379838,4.33146,0.130544,0.379343,0.508576,0.0874691,0.1543,0.23985,-2.89262e-10,1.5042e-10,-9145.35,9145.31,303.168,0.458246,0.0148372,1.72905,0.0885046,4.49815,0.995987,0.987602,0.970061,0.0894988,0.15698,0.242863,0.15895,0.958034,-0.22826,0.173404,0.239852,0.96958,-0.0488477,-0.15698,0.0883891,0.983639,1.45323e-10,1.31102e-10,4.49815,0.0896187,0.157632,0.245316
0.46,-0.706117,0.397588,4.42455,0.129542,0.379907,0.50828,0.0896187,0.157632,0.245316,-2.95829e-10,1.53868e-10,-9145.31,9145.26,303.168,0.458248,0.0151597,1.73242,0.0905878,4.59594,0.995791,0.987074,0.968717,0.0916486,0.160263,0.24817,0.162362,0.956195,-0.232897,0.177341,0.244962,0.968285,-0.0491764,-0.160263,0.090464,0.98292,1.46197e-10,1.34159e-10,4.59594,0.0917774,0.160958,0.25079
0.47,-0.73656,0.415767,4.51744,0.128539,0.380467,0.507986,0.0917774,0.160958,0.25079,-3.02401e-10,1.57319e-10,-9145.26,9145.21,303.168,0.458251,0.0154822,1.73579,0.0926768,4.69372,0.99559,0.986537,0.967342,0.0938072,0.16354,0.253476,0.165772,0.954318,-0.237518,0.181279,0.250064,0.966965,-0.0494729,-0.16354,0.0925442,0.982186,1.47065e-10,1.37226e-10,4.69372,0.0939453,0.164278,0.256272
0.48,-0.76761,0.434377,4.61011,0.127535,0.381022,0.507693,0.0939453,0.164278,0.256272,-3.08978e-10,1.60771e-10,-9145.21,9145.17,303.168,0.458254,0.0158048,1.73915,0.0947716,4.79151,0.995384,0.985989,0.965936,0.0959744,0.166808,0.258783,0.169179,0.952402,-0.242124,0.185219,0.255157,0.965619,-0.0497372,-0.166808,0.0946298,0.981438,1.47925e-10,1.40302e-10,4.79151,0.0961224,0.167592,0.261762
0.49,-0.799264,0.453419,4.70257,0.12653,0.381572,0.507403,0.0961224,0.167592,0.261762,-3.15561e-10,1.64226e-10,-9145.17,9145.12,303.169,0.458256,0.0161273,1.74251,0.096872,4.88929,0.995172,0.985432,0.964498,0.0981504,0.170069,0.26409,0.172583,0.950447,-0.246715,0.18916,0.260242,0.964249,-0.0499693,-0.170069,0.0967206,0.980674,1.48778e-10,1.43388e-10,4.88929,0.0983087,0.1709,0.26726
0.5,-0.831518,0.472895,4.7948,0.125524,0.382117,0.507114,0.0983087,0.1709,0.26726,-3.22148e-10,1.67683e-10,-9145.12,9145.07,303.169,0.458259,0.0164498,1.74586,0.0989781,4.98708,0.994954,0.984865,0.96303,0.100335,0.173322,0.269396,0.175986,0.948454,-0.251289,0.193102,0.265319,0.962855,-0.0501691,-0.173322,0.0988166,0.979895,1.49623e-10,1.46485e-10,4.98708,0.100504,0.174202,0.272766
0.51,-0.864371,0.492806,4.88681,0.124517,0.382658,0.506827,0.100504,0.174202,0.272766,-3.28739e-10,1.71141e-10,-9145.07,9145.02,303.169,0.458262,0.0167724,1.74921,0.10109,5.08486,0.99473,0.984289,0.961529,0.102529,0.176567,0.274702,0.179385,0.946422,-0.255848,0.197044,0.270386,0.961435,-0.0503366,-0.176567,0.100918,0.979102,1.50461e-10,1.49592e-10,5.08486,0.102709,0.177497,0.27828
0.52,-0.897818,0.513153,4.9786,0.12351,0.383195,0.506542,0.102709,0.177497,0.27828,-3.35336e-10,1.74601e-10,-9145.02,9144.97,303.169,0.458265,0.0170949,1.75256,0.103207,5.18265,0.994501,0.983703,0.959998,0.104731,0.179803,0.280008,0.182782,0.944352,-0.26039,0.200987,0.275445,0.959991,-0.0504718,-0.179803,0.103024,0.978293,1.5129e-10,1.52708e-10,5.18265,0.104923,0.180787,0.283802
0.53,-0.931858,0.533937,5.07015,0.122501,0.383726,0.506259,0.104923,0.180787,0.283802,-3.41937e-10,1.78062e-10,-9144.97,9144.92,303.17,0.458268,0.0174174,1.7559,0.10533,5.28044,0.994265,0.983107,0.958434,0.106942,0.183032,0.285313,0.186177,0.942244,-0.264917,0.20493,0.280494,0.958523,-0.0505747,-0.183032,0.105135,0.977469,1.52112e-10,1.55835e-10,5.28044,0.107147,0.184069,0.289333
0.54,-0.966486,0.555159,5.16146,0.121492,0.384253,0.505978,0.107147,0.184069,0.289333,-3.48542e-10,1.81525e-10,-9144.92,9144.86,303.17,0.458271,0.01774,1.75924,0.107458,5.37822,0.994024,0.982502,0.956839,0.109161,0.186251,0.290618,0.189568,0.940096,-0.269428,0.208872,0.285533,0.95703,-0.0506452,-0.186251,0.107251,0.976631,1.52925e-10,1.58973e-10,5.37822,0.109379,0.187345,0.294873
0.55,-1.0017,0.576821,5.25254,0.120482,0.384775,0.505699,0.109379,0.187345,0.294873,-3.55152e-10,1.84989e-10,-9144.86,9144.81,303.17,0.458274,0.0180625,1.76258,0.109591,5.47601,0.993777,0.981888,0.955212,0.11139,0.189462,0.295922,0.192957,0.937911,-0.273922,0.212813,0.290563,0.955513,-0.0506835,-0.189462,0.109372,0.975777,1.53729e-10,1.6212e-10,5.47601,0.111621,0.190615,0.300421
0.56,-1.0375,0.598923,5.34337,0.119471,0.385293,0.505422,0.111621,0.190615,0.300421,-3.61766e-10,1.88453e-10,-9144.81,9144.75,303.17,0.458277,0.018385,1.76591,0.11173,5.57379,0.993524,0.981265,0.953553,0.113627,0.192665,0.301226,0.196343,0.935688,-0.2784,0.216754,0.295582,0.953972,-0.0506893,-0.192665,0.111498,0.974909,1.54524e-10,1.65278e-10,5.57379,0.113873,0.193877,0.305978
0.57,-1.07387,0.621466,5.43394,0.11846,0.385806,0.505147,0.113873,0.193877,0.305978,-3.68385e-10,1.91919e-10,-9144.75,9144.7,303.17,0.45828,0.0187076,1.76923,0.113874,5.67158,0.993264,0.980632,0.951862,0.115873,0.195858,0.306528,0.199727,0.933426,-0.282861,0.220693,0.300592,0.952406,-0.0506629,-0.195858,0.113628,0.974027,1.55311e-10,1.68446e-10,5.67158,0.116133,0.197133,0.311544
0.58,-1.11083,0.644452,5.52427,0.117447,0.386314,0.504873,0.116133,0.197133,0.311544,-3.75007e-10,1.95386e-10,-9144.7,9144.64,303.171,0.458283,0.0190301,1.77255,0.116024,5.76937,0.992998,0.979991,0.950138,0.118127,0.199043,0.31183,0.203107,0.931126,-0.287307,0.22463,0.30559,0.950817,-0.050604,-0.199043,0.115763,0.973129,1.56089e-10,1.71625e-10,5.76937,0.118404,0.200381,0.317118
0.59,-1.14835,0.667882,5.61434,0.116434,0.386818,0.504602,0.118404,0.200381,0.317118,-3.81633e-10,1.98853e-10,-9144.64,9144.58,303.171,0.458286,0.0193526,1.77587,0.118178,5.86715,0.992727,0.97934,0.948382,0.12039,0.202219,0.31713,0.206484,0.928789,-0.291735,0.228565,0.310579,0.949205,-0.0505129,-0.202219,0.117903,0.972217,1.56857e-10,1.74814e-10,5.86715,0.120683,0.203623,0.322702
0.6,-1.18645,0.691756,5.70415,0.11542,0.387317,0.504333,0.120683,0.203623,0.322702,-3.88263e-10,2.02321e-10,-9144.58,9144.52,303.171,0.458289,0.0196751,1.77918,0.120338,5.96494,0.992448,0.978681,0.946593,0.122662,0.205385,0.32243,0.209859,0.926413,-0.296147,0.232498,0.315556,0.947568,-0.0503893,-0.205385,0.120047,0.971291,1.57616e-10,1.78013e-10,5.96494,0.122972,0.206857,0.328295
0.61,-1.22511,0.716075,5.79369,0.114405,0.387812,0.504066,0.122972,0.206857,0.328295,-3.94897e-10,2.0579e-10,-9144.52,9144.46,303.172,0.458293,0.0199977,1.78249,0.122502,6.06272,0.992164,0.978013,0.944772,0.124943,0.208542,0.327728,0.21323,0.924,-0.300543,0.236428,0.320522,0.945908,-0.0502335,-0.208542,0.122196,0.97035,1.58366e-10,1.81223e-10,6.06272,0.125271,0.210084,0.333898
0.62,-1.26433,0.740841,5.88296,0.11339,0.388301,0.503801,0.125271,0.210084,0.333898,-4.01534e-10,2.09258e-10,-9144.46,9144.4,303.172,0.458296,0.0203202,1.78579,0.124672,6.16051,0.991873,0.977337,0.942918,0.127233,0.211689,0.333024,0.216598,0.921549,-0.304921,0.240355,0.325477,0.944225,-0.0500453,-0.211689,0.124349,0.969394,1.59105e-10,1.84443e-10,6.16051,0.127579,0.213303,0.339509
0.63,-1.30411,0.766055,5.97196,0.112373,0.388787,0.503537,0.127579,0.213303,0.339509,-4.08175e-10,2.12727e-10,-9144.4,9144.34,303.172,0.4583,0.0206427,1.78909,0.126847,6.2583,0.991575,0.976652,0.941031,0.129531,0.214827,0.338319,0.219963,0.91906,-0.309283,0.244279,0.33042,0.942518,-0.0498248,-0.214827,0.126507,0.968424,1.59834e-10,1.87674e-10,6.2583,0.129896,0.216515,0.34513
0.64,-1.34445,0.791716,6.06068,0.111357,0.389267,0.503276,0.129896,0.216515,0.34513,-4.14819e-10,2.16196e-10,-9144.34,9144.28,303.172,0.458303,0.0209652,1.79239,0.129026,6.35608,0.991271,0.975959,0.939111,0.131838,0.217956,0.343613,0.223325,0.916534,-0.313628,0.248199,0.335352,0.940788,-0.049572,-0.217956,0.128668,0.96744,1.60554e-10,1.90915e-10,6.35608,0.132223,0.219719,0.350761
0.65,-1.38534,0.817827,6.14913,0.110339,0.389743,0.503017,0.132223,0.219719,0.350761,-4.21466e-10,2.19665e-10,-9144.28,9144.21,303.173,0.458307,0.0212878,1.79568,0.13121,6.45387,0.990961,0.975257,0.937158,0.134154,0.221074,0.348904,0.226683,0.91397,-0.317956,0.252115,0.340271,0.939035,-0.0492869,-0.221074,0.130834,0.966441,1.61262e-10,1.94167e-10,6.45387,0.134559,0.222915,0.356402
0.66,-1.42678,0.844387,6.23728,0.10932,0.390214,0.50276,0.134559,0.222915,0.356402,-4.28116e-10,2.23134e-10,-9144.21,9144.15,303.173,0.45831,0.0216103,1.79896,0.1334,6.55165,0.990643,0.974547,0.935172,0.136478,0.224182,0.354194,0.230037,0.911369,-0.322267,0.256027,0.345179,0.937259,-0.0489695,-0.224182,0.133004,0.965428,1.6196e-10,1.9743e-10,6.55165,0.136905,0.226104,0.362052
0.67,-1.46876,0.871398,6.32515,0.108301,0.390681,0.502505,0.136905,0.226104,0.362052,-4.3477e-10,2.26603e-10,-9144.15,9144.08,303.173,0.458314,0.0219328,1.80224,0.135594,6.64944,0.990319,0.973829,0.933152,0.138811,0.227281,0.359481,0.233389,0.908731,-0.326561,0.259934,0.350073,0.93546,-0.0486199,-0.227281,0.135178,0.964402,1.62647e-10,2.00703e-10,6.64944,0.139261,0.229284,0.367712
0.68,-1.51129,0.898861,6.41273,0.107281,0.391143,0.502253,0.139261,0.229284,0.367712,-4.41425e-10,2.30071e-10,-9144.08,9144.01,303.173,0.458318,0.0222553,1.80552,0.137792,6.74723,0.989988,0.973103,0.931099,0.141153,0.230369,0.364767,0.236736,0.906056,-0.330838,0.263836,0.354956,0.933638,-0.0482381,-0.230369,0.137357,0.96336,1.63322e-10,2.03986e-10,6.74723,0.141626,0.232457,0.373382
0.69,-1.55435,0.926776,6.50001,0.106261,0.391601,0.502002,0.141626,0.232457,0.373382,-4.48084e-10,2.33538e-10,-9144.01,9143.95,303.174,0.458321,0.0225778,1.80879,0.139996,6.84501,0.98965,0.97237,0.929012,0.143504,0.233447,0.370049,0.24008,0.903343,-0.335097,0.267733,0.359825,0.931793,-0.0478241,-0.233447,0.139539,0.962305,1.63987e-10,2.07281e-10,6.84501,0.144001,0.235621,0.379062
0.7,-1.59794,0.955144,6.58699,0.10524,0.392054,0.501753,0.144001,0.235621,0.379062,-4.54745e-10,2.37005e-10,-9143.95,9143.88,303.174,0.458325,0.0229004,1.81206,0.142203,6.9428,0.989305,0.971628,0.926891,0.145863,0.236514,0.37533,0.24342,0.900594,-0.339339,0.271625,0.364681,0.929926,-0.0473779,-0.236514,0.141725,0.961236,1.64641e-10,2.10585e-10,6.9428,0.146385,0.238776,0.384753
0.71,-1.64207,0.983966,6.67367,0.104218,0.392502,0.501507,0.146385,0.238776,0.384753,-4.61408e-10,2.40472e-10,-9143.88,9143.81,303.174,0.458329,0.0232229,1.81532,0.144416,7.04058,0.988953,0.970879,0.924737,0.148231,0.239571,0.380608,0.246757,0.897807,-0.343564,0.27551,0.369524,0.928037,-0.0468996,-0.239571,0.143915,0.960153,1.65282e-10,2.13901e-10,7.04058,0.148779,0.241924,0.390453
0.72,-1.68672,1.01324,6.76004,0.103195,0.392946,0.501262,0.148779,0.241924,0.390453,-4.68074e-10,2.43937e-10,-9143.81,9143.74,303.175,0.458333,0.0235454,1.81857,0.146633,7.13837,0.988594,0.970122,0.922548,0.150608,0.242617,0.385883,0.250089,0.894984,-0.347771,0.27939,0.374353,0.926125,-0.0463892,-0.242617,0.146108,0.959057,1.65912e-10,2.17226e-10,7.13837,0.151183,0.245062,0.396164
0.73,-1.73189,1.04297,6.8461,0.102172,0.393385,0.50102,0.151183,0.245062,0.396164,-4.74741e-10,2.47402e-10,-9143.74,9143.66,303.175,0.458337,0.0238679,1.82182,0.148854,7.23615,0.988227,0.969358,0.920325,0.152993,0.245652,0.391155,0.253417,0.892124,-0.351961,0.283262,0.379169,0.924191,-0.0458468,-0.245652,0.148305,0.957946,1.66529e-10,2.20562e-10,7.23615,0.153597,0.248192,0.401886
0.74,-1.77758,1.07316,6.93185,0.101148,0.39382,0.50078,0.153597,0.248192,0.401886,-4.8141e-10,2.50865e-10,-9143.66,9143.59,303.175,0.458341,0.0241904,1.82507,0.15108,7.33394,0.987854,0.968587,0.918068,0.155388,0.248677,0.396424,0.256742,0.889228,-0.356133,0.287128,0.383971,0.922235,-0.0452724,-0.248677,0.150506,0.956822,1.67135e-10,2.23909e-10,7.33394,0.15602,0.251314,0.407618
0.75,-1.82378,1.1038,7.01727,0.100124,0.39425,0.500542,0.15602,0.251314,0.407618,-4.88081e-10,2.54327e-10,-9143.59,9143.52,303.176,0.458345,0.0245129,1.82831,0.153311,7.43173,0.987473,0.967808,0.915776,0.15779,0.25169,0.40169,0.260062,0.886295,-0.360288,0.290987,0.388758,0.920256,-0.044666,-0.25169,0.152711,0.955684,1.67728e-10,2.27267e-10,7.43173,0.158453,0.254426,0.413361
0.76,-1.87049,1.13491,7.10238,0.0990989,0.394675,0.500306,0.158453,0.254426,0.413361,-4.94754e-10,2.57788e-10,-9143.52,9143.44,303.176,0.458349,0.0248355,1.83155,0.155545,7.52951,0.987084,0.967022,0.91345,0.160202,0.254692,0.406952,0.263378,0.883326,-0.364425,0.294838,0.393531,0.918256,-0.0440277,-0.254692,0.154919,0.954532,1.68307e-10,2.30634e-10,7.52951,0.160895,0.257529,0.419115
0.77,-1.91771,1.16646,7.18716,0.0980732,0.395096,0.500073,0.160895,0.257529,0.419115,-5.01428e-10,2.61248e-10,-9143.44,9143.37,303.176,0.458353,0.025158,1.83478,0.157784,7.6273,0.986688,0.966229,0.911089,0.162622,0.257683,0.412211,0.266689,0.880321,-0.368544,0.298682,0.39829,0.916234,-0.0433575,-0.257683,0.15713,0.953367,1.68874e-10,2.34013e-10,7.6273,0.163348,0.260624,0.424879
0.78,-1.96543,1.19848,7.27162,0.0970469,0.395512,0.499841,0.163348,0.260624,0.424879,-5.08103e-10,2.64706e-10,-9143.37,9143.29,303.177,0.458358,0.0254805,1.838,0.160027,7.72508,0.986285,0.96543,0.908693,0.165051,0.260663,0.417466,0.269997,0.877279,-0.372646,0.302517,0.403034,0.914191,-0.0426555,-0.260663,0.159345,0.952189,1.69429e-10,2.37401e-10,7.72508,0.16581,0.263709,0.430654
0.79,-2.01364,1.23096,7.35574,0.09602,0.395924,0.499612,0.16581,0.263709,0.430654,-5.14779e-10,2.68163e-10,-9143.29,9143.21,303.177,0.458362,0.025803,1.84122,0.162275,7.82287,0.985874,0.964624,0.906262,0.167489,0.263631,0.422717,0.273299,0.874202,-0.376729,0.306344,0.407763,0.912125,-0.0419217,-0.263631,0.161564,0.950997,1.69969e-10,2.408e-10,7.82287,0.168282,0.266784,0.436441
0.8,-2.06235,1.26389,7.43953,0.0949926,0.396331,0.499385,0.168282,0.266784,0.436441,-5.21456e-10,2.71618e-10,-9143.21,9143.13,303.177,0.458366,0.0261255,1.84444,0.164526,7.92066,0.985455,0.963811,0.903796,0.169935,0.266587,0.427964,0.276597,0.871088,-0.380795,0.310162,0.412476,0.910038,-0.0411562,-0.266587,0.163785,0.949792,1.70497e-10,2.44209e-10,7.92066,0.170764,0.26985,0.442239
0.81,-2.11155,1.29729,7.52298,0.0939645,0.396733,0.49916,0.170764,0.26985,0.442239,-5.28134e-10,2.75072e-10,-9143.13,9143.05,303.178,0.458371,0.026448,1.84764,0.166782,8.01844,0.985029,0.962991,0.901295,0.17239,0.269532,0.433206,0.27989,0.867939,-0.384843,0.313971,0.417174,0.90793,-0.0403591,-0.269532,0.16601,0.948574,1.7101e-10,2.47628e-10,8.01844,0.173255,0.272907,0.448047
0.82,-2.16123,1.33114,7.60609,0.0929358,0.397131,0.498938,0.173255,0.272907,0.448047,-5.34812e-10,2.78523e-10,-9143.05,9142.97,303.178,0.458375,0.0267705,1.85085,0.169042,8.11623,0.984595,0.962166,0.898758,0.174853,0.272465,0.438445,0.283179,0.864754,-0.388872,0.317771,0.421857,0.9058,-0.0395304,-0.272465,0.168238,0.947343,1.71509e-10,2.51057e-10,8.11623,0.175757,0.275954,0.453868
0.83,-2.21139,1.36546,7.68885,0.0919066,0.397525,0.498717,0.175757,0.275954,0.453868,-5.41491e-10,2.81973e-10,-9142.97,9142.89,303.178,0.45838,0.027093,1.85405,0.171305,8.21401,0.984152,0.961334,0.896186,0.177325,0.275386,0.443678,0.286462,0.861534,-0.392884,0.321561,0.426523,0.90365,-0.0386701,-0.275386,0.170469,0.946099,1.71995e-10,2.54497e-10,8.21401,0.178268,0.278991,0.459699
0.84,-2.26202,1.40023,7.77127,0.0908768,0.397914,0.498499,0.178268,0.278991,0.459699,-5.4817e-10,2.85421e-10,-9142.89,9142.81,303.179,0.458384,0.0274155,1.85724,0.173573,8.3118,0.983702,0.960496,0.893578,0.179806,0.278295,0.448907,0.289741,0.858278,-0.396877,0.325341,0.431174,0.901478,-0.0377784,-0.278295,0.172703,0.944842,1.72466e-10,2.57946e-10,8.3118,0.180789,0.282018,0.465542
0.85,-2.31313,1.43547,7.85334,0.0898465,0.398298,0.498284,0.180789,0.282018,0.465542,-5.54848e-10,2.88866e-10,-9142.81,9142.73,303.179,0.458389,0.027738,1.86042,0.175845,8.40959,0.983244,0.959652,0.890935,0.182295,0.281191,0.454131,0.293014,0.854987,-0.400853,0.329111,0.435808,0.899285,-0.0368553,-0.281191,0.17494,0.943572,1.72922e-10,2.61405e-10,8.40959,0.18332,0.285035,0.471397
0.86,-2.3647,1.47117,7.93505,0.0888156,0.398678,0.49807,0.18332,0.285035,0.471397,-5.61527e-10,2.9231e-10,-9142.73,9142.64,303.179,0.458394,0.0280605,1.8636,0.17812,8.50737,0.982777,0.958802,0.888255,0.184793,0.284075,0.45935,0.296282,0.851661,-0.40481,0.332871,0.440426,0.897071,-0.0359009,-0.284075,0.17718,0.942289,1.73364e-10,2.64875e-10,8.50737,0.185861,0.288042,0.477263
0.87,-2.41674,1.50734,8.0164,0.0877842,0.399053,0.497859,0.185861,0.288042,0.477263,-5.68205e-10,2.95751e-10,-9142.64,9142.56,303.18,0.458398,0.028383,1.86678,0.1804,8.60516,0.982303,0.957946,0.88554,0.1873,0.286947,0.464563,0.299544,0.8483,-0.408748,0.336619,0.445027,0.894836,-0.0349153,-0.286947,0.179423,0.940993,1.73791e-10,2.68354e-10,8.60516,0.188412,0.291039,0.483141
0.88,-2.46923,1.54396,8.0974,0.0867522,0.399424,0.49765,0.188412,0.291039,0.483141,-5.74882e-10,2.9919e-10,-9142.56,9142.47,303.18,0.458403,0.0287055,1.86995,0.182683,8.70294,0.98182,0.957085,0.882788,0.189815,0.289807,0.469771,0.302801,0.844904,-0.412669,0.340356,0.449611,0.892581,-0.0338984,-0.289807,0.181669,0.939685,1.74202e-10,2.71842e-10,8.70294,0.190973,0.294025,0.489031
0.89,-2.52217,1.58105,8.17803,0.0857197,0.39979,0.497443,0.190973,0.294025,0.489031,-5.81559e-10,3.02627e-10,-9142.47,9142.38,303.18,0.458408,0.029028,1.87311,0.18497,8.80073,0.981329,0.956219,0.880001,0.192338,0.292653,0.474973,0.306053,0.841473,-0.416571,0.344082,0.454178,0.890305,-0.0328505,-0.292653,0.183917,0.938365,1.74599e-10,2.75341e-10,8.80073,0.193544,0.297001,0.494933
0.9,-2.57556,1.61861,8.25829,0.0846868,0.400152,0.497238,0.193544,0.297001,0.494933,-5.88235e-10,3.06061e-10,-9142.38,9142.29,303.181,0.458413,0.0293505,1.87627,0.187261,8.89852,0.980829,0.955347,0.877176,0.19487,0.295487,0.480169,0.309299,0.838007,-0.420454,0.347796,0.458727,0.888009,-0.0317716,-0.295487,0.186168,0.937032,1.7498e-10,2.78849e-10,8.89852,0.196125,0.299966,0.500847
0.91,-2.6294,1.65662,8.33819,0.0836533,0.400509,0.497036,0.196125,0.299966,0.500847,-5.94909e-10,3.09493e-10,-9142.29,9142.2,303.181,0.458418,0.029673,1.87942,0.189555,8.9963,0.980321,0.954469,0.874315,0.19741,0.298309,0.485358,0.312539,0.834507,-0.424319,0.351498,0.46326,0.885692,-0.0306618,-0.298309,0.188422,0.935686,1.75345e-10,2.82366e-10,8.9963,0.198716,0.30292,0.506773
0.92,-2.68367,1.6951,8.41772,0.0826193,0.400861,0.496836,0.198716,0.30292,0.506773,-6.01582e-10,3.12922e-10,-9142.2,9142.11,303.182,0.458423,0.0299955,1.88257,0.191853,9.09409,0.979804,0.953587,0.871418,0.199959,0.301117,0.490541,0.315773,0.830973,-0.428165,0.355188,0.467774,0.883355,-0.0295211,-0.301117,0.190679,0.934329,1.75695e-10,2.85893e-10,9.09409,0.201316,0.305864,0.512711
0.93,-2.73838,1.73405,8.49687,0.0815848,0.401209,0.496639,0.201316,0.305864,0.512711,-6.08254e-10,3.16349e-10,-9142.11,9142.02,303.182,0.458428,0.030318,1.88571,0.194155,9.19187,0.979279,0.9527,0.868484,0.202517,0.303912,0.495718,0.319,0.827404,-0.431993,0.358864,0.472271,0.880998,-0.0283497,-0.303912,0.192938,0.932959,1.76028e-10,2.89429e-10,9.19187,0.203927,0.308796,0.518661
0.94,-2.79352,1.77346,8.57564,0.0805499,0.401553,0.496444,0.203927,0.308796,0.518661,-6.14923e-10,3.19773e-10,-9142.02,9141.93,303.182,0.458433,0.0306405,1.88884,0.196461,9.28966,0.978745,0.951808,0.865512,0.205082,0.306694,0.500888,0.322222,0.823802,-0.435803,0.362528,0.476749,0.87862,-0.0271476,-0.306694,0.195199,0.931577,1.76346e-10,2.92973e-10,9.28966,0.206548,0.311717,0.524624
0.95,-2.84908,1.81333,8.65404,0.0795144,0.401892,0.496251,0.206548,0.311717,0.524624,-6.21591e-10,3.23194e-10,-9141.93,9141.84,303.183,0.458438,0.030963,1.89197,0.198769,9.38745,0.978202,0.950912,0.862504,0.207657,0.309462,0.50605,0.325437,0.820165,-0.439593,0.366179,0.481209,0.876223,-0.0259149,-0.309462,0.197463,0.930184,1.76646e-10,2.96526e-10,9.38745,0.209179,0.314628,0.530599
0.96,-2.90506,1.85367,8.73205,0.0784785,0.402226,0.49606,0.209179,0.314628,0.530599,-6.28256e-10,3.26613e-10,-9141.84,9141.74,303.183,0.458443,0.0312855,1.89509,0.201082,9.48523,0.97765,0.950011,0.859459,0.210239,0.312217,0.511205,0.328646,0.816495,-0.443365,0.369816,0.485651,0.873805,-0.0246518,-0.312217,0.199729,0.928778,1.7693e-10,3.00089e-10,9.48523,0.21182,0.317526,0.536587
0.97,-2.96146,1.89448,8.80967,0.0774422,0.402556,0.495872,0.21182,0.317526,0.536587,-6.34919e-10,3.30029e-10,-9141.74,9141.65,303.184,0.458449,0.031608,1.8982,0.203398,9.58302,0.977089,0.949105,0.856376,0.21283,0.314959,0.516353,0.331849,0.812791,-0.447118,0.373439,0.490073,0.871368,-0.0233583,-0.314959,0.201998,0.927361,1.77198e-10,3.0366e-10,9.58302,0.21447,0.320414,0.542587
0.98,-3.01826,1.93575,8.88691,0.0764054,0.402882,0.495686,0.21447,0.320414,0.542587,-6.4158e-10,3.33442e-10,-9141.65,9141.55,303.184,0.458454,0.0319305,1.90131,0.205717,9.6808,0.976519,0.948196,0.853256,0.215429,0.317687,0.521493,0.335044,0.809053,-0.450852,0.377048,0.494477,0.868911,-0.0220345,-0.317687,0.204269,0.925931,1.7745e-10,3.07238e-10,9.6808,0.217131,0.323289,0.5486
0.99,-3.07547,1.97749,8.96376,0.0753681,0.403203,0.495502,0.217131,0.323289,0.5486,-6.48237e-10,3.36852e-10,-9141.55,9141.45,303.184,0.458459,0.0322529,1.90441,0.208039,9.77859,0.975941,0.947282,0.850098,0.218036,0.320402,0.526625,0.338233,0.805282,-0.454567,0.380643,0.498862,0.866435,-0.0206806,-0.320402,0.206542,0.924491,1.77684e-10,3.10827e-10,9.77859,0.219802,0.326153,0.554625
1,-3.13308,2.01969,9.04022,0.0743304,0.403519,0.495321,0.219802,0.326153,0.554625,-6.54892e-10,3.40259e-10,-9141.45,9141.35,303.185,0.458465,0.0325754,1.90751,0.210365,9.87638,0.975353,0.946364,0.846903,0.220652,0.323102,0.531748,0.341414,0.801478,-0.458263,0.384223,0.503227,0.863939,-0.0192966,-0.323102,0.208817,0.923039,1.779e-10,3.14422e-10,9.87638,0.222483,0.329006,0.560663
1.01,-3.19108,2.06236,9.11628,0.0732923,0.403831,0.495143,0.222483,0.329006,0.560663,-6.61543e-10,3.43664e-10,-9141.35,9141.25,303.185,0.45847,0.0328979,1.9106,0.212695,9.97416,0.974755,0.945443,0.843669,0.223276,0.325789,0.536863,0.344589,0.797641,-0.461941,0.387788,0.507573,0.861423,-0.0178827,-0.325789,0.211095,0.921575,1.78099e-10,3.18026e-10,9.97416,0.225174,0.331846,0.566714
1.02,-3.24947,2.10549,9.19194,0.0722537,0.404138,0.494966,0.225174,0.331846,0.566714,-6.6819e-10,3.47065e-10,-9141.25,9141.15,303.186,0.458476,0.0332204,1.91368,0.215027,10.0719,0.974149,0.944517,0.840398,0.225908,0.328461,0.541969,0.347756,0.793771,-0.465599,0.391338,0.511899,0.858888,-0.0164389,-0.328461,0.213374,0.9201,1.78281e-10,3.21638e-10,10.0719,0.227875,0.334674,0.572778
1.03,-3.30824,2.14909,9.2672,0.0712148,0.404441,0.494792,0.227875,0.334674,0.572778,-6.74834e-10,3.50464e-10,-9141.15,9141.05,303.186,0.458482,0.0335429,1.91676,0.217363,10.1697,0.973533,0.943589,0.837089,0.228548,0.33112,0.547066,0.350915,0.789868,-0.469238,0.394872,0.516205,0.856334,-0.0149654,-0.33112,0.215656,0.918614,1.78445e-10,3.25256e-10,10.1697,0.230586,0.33749,0.578855
1.04,-3.3674,2.19316,9.34206,0.0701754,0.40474,0.494621,0.230586,0.33749,0.578855,-6.81474e-10,3.5386e-10,-9141.05,9140.95,303.187,0.458487,0.0338653,1.91982,0.219702,10.2675,0.972907,0.942657,0.833742,0.231196,0.333764,0.552154,0.354067,0.785933,-0.472859,0.39839,0.520492,0.853761,-0.0134622,-0.333764,0.217939,0.917117,1.78593e-10,3.28883e-10,10.2675,0.233307,0.340294,0.584945
1.05,-3.42693,2.23769,9.41652,0.0691356,0.405034,0.494451,0.233307,0.340294,0.584945,-6.88109e-10,3.57253e-10,-9140.95,9140.85,303.187,0.458493,0.0341878,1.92289,0.222044,10.3653,0.972272,0.941721,0.830357,0.233853,0.336394,0.557232,0.357211,0.781965,-0.47646,0.401892,0.524757,0.851168,-0.0119296,-0.336394,0.220224,0.915609,1.78721e-10,3.32515e-10,10.3653,0.236039,0.343085,0.591049
1.06,-3.48682,2.28269,9.49057,0.0680954,0.405323,0.494285,0.236039,0.343085,0.591049,-6.9474e-10,3.60642e-10,-9140.85,9140.74,303.188,0.458499,0.0345103,1.92594,0.22439,10.4631,0.971627,0.940783,0.826933,0.236517,0.339009,0.5623,0.360348,0.777965,-0.480042,0.405378,0.529003,0.848557,-0.0103675,-0.339009,0.222511,0.914091,1.78833e-10,3.36156e-10,10.4631,0.23878,0.345863,0.597165
1.07,-3.54708,2.32816,9.56421,0.0670549,0.405608,0.49412,0.23878,0.345863,0.597165,-7.01367e-10,3.64029e-10,-9140.74,9140.64,303.188,0.458505,0.0348328,1.92899,0.226738,10.5609,0.970973,0.939842,0.823471,0.23919,0.34161,0.567358,0.363476,0.773932,-0.483604,0.408847,0.533227,0.845927,-0.00877624,-0.34161,0.2248,0.912561,1.78926e-10,3.39803e-10,10.5609,0.241531,0.348629,0.603294
1.08,-3.6077,2.37409,9.63744,0.0660139,0.405889,0.493958,0.241531,0.348629,0.603294,-7.07989e-10,3.67413e-10,-9140.64,9140.53,303.188,0.45851,0.0351552,1.93203,0.22909,10.6587,0.970309,0.938898,0.81997,0.24187,0.344196,0.572406,0.366596,0.769868,-0.487148,0.412299,0.537431,0.843277,-0.00715581,-0.344196,0.227091,0.911021,1.79001e-10,3.43456e-10,10.6587,0.244292,0.351383,0.609437
1.09,-3.66867,2.42049,9.71026,0.0649726,0.406165,0.493799,0.244292,0.351383,0.609437,-7.14605e-10,3.70794e-10,-9140.53,9140.43,303.189,0.458516,0.0354777,1.93507,0.231444,10.7564,0.969635,0.937951,0.816431,0.244558,0.346768,0.577443,0.369708,0.765772,-0.490672,0.415733,0.541613,0.84061,-0.00550637,-0.346768,0.229383,0.90947,1.79057e-10,3.47116e-10,10.7564,0.247064,0.354123,0.615593
1.1,-3.72999,2.46735,9.78267,0.0639309,0.406436,0.493641,0.247064,0.354123,0.615593,-7.21217e-10,3.74173e-10,-9140.43,9140.32,303.189,0.458522,0.0358002,1.93809,0.233802,10.8542,0.968951,0.937002,0.812853,0.247254,0.349324,0.582469,0.372811,0.761645,-0.494176,0.419151,0.545775,0.837923,-0.00382805,-0.349324,0.231677,0.907909,1.79097e-10,3.50781e-10,10.8542,0.249845,0.35685,0.621763
1.11,-3.79165,2.51468,9.85465,0.0628888,0.406704,0.493487,0.249845,0.35685,0.621763,-7.27822e-10,3.77548e-10,-9140.32,9140.21,303.19,0.458528,0.0361227,1.94111,0.236162,10.952,0.968257,0.93605,0.809236,0.249958,0.351866,0.587484,0.375905,0.757485,-0.497662,0.42255,0.549915,0.835218,-0.00212097,-0.351866,0.233973,0.906337,1.79116e-10,3.54453e-10,10.952,0.252637,0.359564,0.627946
1.12,-3.85364,2.56248,9.92622,0.0618464,0.406966,0.493335,0.252637,0.359564,0.627946,-7.34422e-10,3.80921e-10,-9140.21,9140.1,303.19,0.458534,0.0364451,1.94413,0.238526,11.0498,0.967553,0.935097,0.80558,0.252669,0.354393,0.592487,0.37899,0.753295,-0.501128,0.425932,0.554033,0.832495,-0.000385264,-0.354393,0.23627,0.904755,1.7912e-10,3.5813e-10,11.0498,0.255438,0.362265,0.634143
1.13,-3.91597,2.61074,9.99737,0.0608037,0.407224,0.493185,0.255438,0.362265,0.634143,-7.41016e-10,3.84291e-10,-9140.1,9139.99,303.191,0.458541,0.0367676,1.94713,0.240892,11.1476,0.966838,0.934141,0.801885,0.255389,0.356904,0.597478,0.382067,0.749074,-0.504574,0.429295,0.558129,0.829753,0.00137893,-0.356904,0.238569,0.903163,1.79102e-10,3.61812e-10,11.1476,0.25825,0.364952,0.640353
1.14,-3.97862,2.65947,10.0681,0.0597606,0.407478,0.493037,0.25825,0.364952,0.640353,-7.47604e-10,3.87658e-10,-9139.99,9139.88,303.191,0.458547,0.0370901,1.95013,0.243261,11.2454,0.966114,0.933183,0.798151,0.258115,0.359401,0.602458,0.385134,0.744821,-0.508001,0.432639,0.562203,0.826993,0.00317147,-0.359401,0.240869,0.901562,1.79068e-10,3.655e-10,11.2454,0.261071,0.367626,0.646577
1.15,-4.0416,2.70866,10.1384,0.0587172,0.407727,0.492893,0.261071,0.367626,0.646577,-7.54185e-10,3.91022e-10,-9139.88,9139.76,303.192,0.458553,0.0374125,1.95312,0.245633,11.3432,0.965379,0.932224,0.794378,0.26085,0.361882,0.607424,0.388192,0.740538,-0.511408,0.435965,0.566256,0.824215,0.00499222,-0.361882,0.243171,0.89995,1.79014e-10,3.69192e-10,11.3432,0.263902,0.370286,0.652814
1.16,-4.10488,2.75832,10.2083,0.0576734,0.407972,0.49275,0.263902,0.370286,0.652814,-7.6076e-10,3.94384e-10,-9139.76,9139.65,303.192,0.458559,0.037735,1.95611,0.248008,11.441,0.964634,0.931263,0.790565,0.263592,0.364347,0.612378,0.39124,0.736224,-0.514796,0.439271,0.570285,0.821418,0.00684104,-0.364347,0.245473,0.898328,1.78942e-10,3.72889e-10,11.441,0.266744,0.372932,0.659065
1.17,-4.16848,2.80845,10.2777,0.0566293,0.408212,0.49261,0.266744,0.372932,0.659065,-7.67327e-10,3.97744e-10,-9139.65,9139.53,303.193,0.458566,0.0380574,1.95908,0.250386,11.5387,0.963879,0.930301,0.786713,0.266341,0.366797,0.617319,0.394278,0.73188,-0.518164,0.442558,0.574292,0.818604,0.00871779,-0.366797,0.247778,0.896697,1.78851e-10,3.7659e-10,11.5387,0.269595,0.375564,0.66533
1.18,-4.23238,2.85904,10.3468,0.0555849,0.408448,0.492473,0.269595,0.375564,0.66533,-7.73888e-10,4.01101e-10,-9139.53,9139.42,303.193,0.458572,0.0383799,1.96205,0.252766,11.6365,0.963113,0.929337,0.782821,0.269098,0.369232,0.622246,0.397307,0.727505,-0.521513,0.445826,0.578277,0.815771,0.0106223,-0.369232,0.250083,0.895057,1.78742e-10,3.80295e-10,11.6365,0.272457,0.378182,0.671609
1.19,-4.29657,2.9101,10.4153,0.0545402,0.408679,0.492338,0.272457,0.378182,0.671609,-7.80441e-10,4.04456e-10,-9139.42,9139.3,303.194,0.458579,0.0387023,1.96501,0.255149,11.7343,0.962336,0.928373,0.77889,0.271862,0.371651,0.62716,0.400325,0.723101,-0.524841,0.449074,0.582238,0.812921,0.0125545,-0.371651,0.25239,0.893407,1.78614e-10,3.84003e-10,11.7343,0.275328,0.380786,0.677902
1.2,-4.36106,2.96162,10.4835,0.0534952,0.408906,0.492205,0.275328,0.380786,0.677902,-7.86986e-10,4.07808e-10,-9139.3,9139.18,303.194,0.458585,0.0390248,1.96797,0.257535,11.8321,0.961549,0.927407,0.77492,0.274634,0.374054,0.63206,0.403333,0.718666,-0.52815,0.452301,0.586177,0.810053,0.0145141,-0.374054,0.254697,0.891747,1.78468e-10,3.87715e-10,11.8321,0.278209,0.383376,0.684208
1.21,-4.42584,3.0136,10.5512,0.0524499,0.409129,0.492075,0.278209,0.383376,0.684208,-7.93524e-10,4.11158e-10,-9139.18,9139.06,303.195,0.458592,0.0393473,1.97091,0.259923,11.9299,0.960751,0.926441,0.770909,0.277413,0.376441,0.636945,0.40633,0.714202,-0.53144,0.455508,0.590092,0.807168,0.0165011,-0.376441,0.257006,0.890079,1.78304e-10,3.91429e-10,11.9299,0.2811,0.385951,0.690529
1.22,-4.49089,3.06606,10.6185,0.0514043,0.409347,0.491948,0.2811,0.385951,0.690529,-8.00054e-10,4.14507e-10,-9139.06,9138.94,303.195,0.458598,0.0396697,1.97385,0.262314,12.0277,0.959942,0.925474,0.766859,0.280198,0.378812,0.641815,0.409317,0.709708,-0.534709,0.458694,0.593983,0.804264,0.0185153,-0.378812,0.259316,0.888401,1.78121e-10,3.95146e-10,12.0277,0.284001,0.388512,0.696863
1.23,-4.55622,3.11897,10.6854,0.0503584,0.40956,0.491823,0.284001,0.388512,0.696863,-8.06575e-10,4.17853e-10,-9138.94,9138.82,303.196,0.458605,0.0399922,1.97678,0.264708,12.1255,0.959122,0.924506,0.762769,0.282991,0.381167,0.646671,0.412293,0.705185,-0.537959,0.46186,0.597851,0.801344,0.0205565,-0.381167,0.261627,0.886715,1.77919e-10,3.98864e-10,12.1255,0.286912,0.391058,0.703211
1.24,-4.62182,3.17235,10.7518,0.0493123,0.40977,0.4917,0.286912,0.391058,0.703211,-8.13089e-10,4.21198e-10,-9138.82,9138.7,303.196,0.458612,0.0403146,1.9797,0.267104,12.2232,0.958292,0.923538,0.75864,0.285791,0.383506,0.651511,0.415257,0.700633,-0.541188,0.465004,0.601695,0.798405,0.0226245,-0.383506,0.263939,0.885019,1.777e-10,4.02585e-10,12.2232,0.289832,0.39359,0.709574
1.25,-4.68769,3.22619,10.8178,0.0482659,0.409974,0.49158,0.289832,0.39359,0.709574,-8.19593e-10,4.2454e-10,-9138.7,9138.58,303.197,0.458619,0.0406371,1.98262,0.269503,12.321,0.95745,0.92257,0.75447,0.288598,0.385829,0.656335,0.418211,0.696052,-0.544398,0.468127,0.605515,0.79545,0.0247193,-0.385829,0.266252,0.883315,1.77462e-10,4.06309e-10,12.321,0.292762,0.396106,0.71595
1.26,-4.75381,3.2805,10.8834,0.0472192,0.410175,0.491463,0.292762,0.396106,0.71595,-8.26089e-10,4.27882e-10,-9138.58,9138.46,303.197,0.458625,0.0409595,1.98552,0.271904,12.4188,0.956598,0.921602,0.75026,0.291412,0.388135,0.661143,0.421153,0.691442,-0.547588,0.471228,0.609311,0.792477,0.0268406,-0.388135,0.268566,0.881603,1.77206e-10,4.10032e-10,12.4188,0.295702,0.398607,0.722341
1.27,-4.82018,3.33527,10.9485,0.0461723,0.41037,0.491348,0.295702,0.398607,0.722341,-8.32575e-10,4.31222e-10,-9138.46,9138.33,303.198,0.458632,0.0412819,1.98842,0.274307,12.5166,0.955734,0.920635,0.74601,0.294232,0.390425,0.665934,0.424083,0.686803,-0.550758,0.474308,0.613082,0.789487,0.0289883,-0.390425,0.27088,0.879882,1.76931e-10,4.13757e-10,12.5166,0.298652,0.401093,0.728746
1.28,-4.8868,3.3905,11.0131,0.0451251,0.410562,0.491235,0.298652,0.401093,0.728746,-8.39052e-10,4.34561e-10,-9138.33,9138.21,303.198,0.458639,0.0416044,1.99131,0.276714,12.6144,0.954859,0.919667,0.74172,0.297059,0.392699,0.670709,0.427001,0.682136,-0.553907,0.477365,0.616829,0.78648,0.0311622,-0.392699,0.273196,0.878152,1.7664e-10,4.17483e-10,12.6144,0.301611,0.403564,0.735165
1.29,-4.95365,3.4462,11.0774,0.0440776,0.410749,0.491126,0.301611,0.403564,0.735165,-8.4552e-10,4.37899e-10,-9138.21,9138.08,303.199,0.458646,0.0419268,1.99419,0.279122,12.7122,0.953973,0.9187,0.73739,0.299893,0.394956,0.675467,0.429907,0.677441,-0.557037,0.4804,0.620551,0.783456,0.0333622,-0.394956,0.275512,0.876415,1.76331e-10,4.21209e-10,12.7122,0.30458,0.40602,0.741598
1.3,-5.02075,3.50235,11.1411,0.0430299,0.410931,0.491018,0.30458,0.40602,0.741598,-8.51978e-10,4.41236e-10,-9138.08,9137.95,303.2,0.458653,0.0422493,1.99706,0.281533,12.81,0.953075,0.917734,0.73302,0.302733,0.397196,0.680207,0.432801,0.672717,-0.560147,0.483412,0.624249,0.780415,0.035588,-0.397196,0.277828,0.874669,1.76003e-10,4.24935e-10,12.81,0.307559,0.40846,0.748045
1.31,-5.08806,3.55897,11.2045,0.041982,0.411109,0.490913,0.307559,0.40846,0.748045,-8.58427e-10,4.44572e-10,-9137.95,9137.82,303.2,0.458661,0.0425717,1.99993,0.283946,12.9077,0.952166,0.916768,0.72861,0.30558,0.39942,0.684929,0.435682,0.667966,-0.563236,0.486401,0.627921,0.777357,0.0378395,-0.39942,0.280146,0.872916,1.75658e-10,4.28661e-10,12.9077,0.310547,0.410884,0.754506
1.32,-5.15561,3.61605,11.2674,0.0409339,0.411283,0.490811,0.310547,0.410884,0.754506,-8.64865e-10,4.47908e-10,-9137.82,9137.69,303.201,0.458668,0.0428941,2.00278,0.286362,13.0055,0.951246,0.915804,0.724159,0.308433,0.401626,0.689633,0.438551,0.663188,-0.566305,0.489367,0.631568,0.774282,0.0401166,-0.401626,0.282464,0.871155,1.75297e-10,4.32385e-10,13.0055,0.313545,0.413292,0.760982
1.33,-5.22336,3.67359,11.3298,0.0398855,0.411452,0.490711,0.313545,0.413292,0.760982,-8.71293e-10,4.51243e-10,-9137.69,9137.56,303.201,0.458675,0.0432166,2.00563,0.288779,13.1033,0.950314,0.91484,0.719668,0.311292,0.403816,0.694318,0.441406,0.658382,-0.569354,0.49231,0.63519,0.77119,0.042419,-0.403816,0.284782,0.869386,1.7492e-10,4.36108e-10,13.1033,0.316552,0.415684,0.767472
1.34,-5.29133,3.73159,11.3918,0.038837,0.411617,0.490614,0.316552,0.415684,0.767472,-8.77711e-10,4.54579e-10,-9137.56,9137.43,303.202,0.458682,0.043539,2.00847,0.2912,13.2011,0.949371,0.913878,0.715137,0.314157,0.405989,0.698984,0.444249,0.653548,-0.572383,0.495229,0.638786,0.768082,0.0447466,-0.405989,0.287102,0.867609,1.74525e-10,4.39831e-10,13.2011,0.319569,0.418061,0.773976
1.35,-5.3595,3.79006,11.4534,0.0377882,0.411777,0.490519,0.319569,0.418061,0.773976,-8.84118e-10,4.57915e-10,-9137.43,9137.3,303.202,0.45869,0.0438614,2.0113,0.293622,13.2989,0.948416,0.912917,0.710566,0.317029,0.408145,0.703631,0.447078,0.648688,-0.575392,0.498125,0.642356,0.764957,0.0470992,-0.408145,0.289421,0.865825,1.74112e-10,4.4355e-10,13.2989,0.322595,0.420421,0.780494
1.36,-5.42787,3.84898,11.5145,0.0367392,0.411933,0.490427,0.322595,0.420421,0.780494,-8.90515e-10,4.61251e-10,-9137.3,9137.16,303.203,0.458697,0.0441839,2.01412,0.296047,13.3967,0.947449,0.911958,0.705954,0.319906,0.410283,0.708257,0.449893,0.643801,-0.57838,0.500996,0.645901,0.761816,0.0494766,-0.410283,0.291741,0.864034,1.73685e-10,4.47267e-10,13.3967,0.32563,0.422765,0.787027
1.37,-5.49643,3.90836,11.5752,0.03569,0.412085,0.490338,0.32563,0.422765,0.787027,-8.969e-10,4.64588e-10,-9137.16,9137.03,303.204,0.458704,0.0445063,2.01693,0.298473,13.4945,0.946471,0.911001,0.701302,0.322789,0.412405,0.712864,0.452694,0.638887,-0.581348,0.503844,0.64942,0.758659,0.0518787,-0.412405,0.294061,0.862236,1.73242e-10,4.50982e-10,13.4945,0.328675,0.425092,0.793574
1.38,-5.56518,3.9682,11.6354,0.0346406,0.412232,0.490251,0.328675,0.425092,0.793574,-9.03275e-10,4.67926e-10,-9137.03,9136.89,303.204,0.458712,0.0448287,2.01973,0.300902,13.5922,0.945481,0.910045,0.69661,0.325678,0.414509,0.71745,0.455482,0.633947,-0.584295,0.506667,0.652912,0.755485,0.0543052,-0.414509,0.296382,0.86043,1.72782e-10,4.54693e-10,13.5922,0.331729,0.427403,0.800135
1.39,-5.63411,4.0285,11.6952,0.0335911,0.412375,0.490167,0.331729,0.427403,0.800135,-9.09639e-10,4.71265e-10,-9136.89,9136.76,303.205,0.45872,0.0451511,2.02253,0.303333,13.69,0.944479,0.909092,0.691877,0.328573,0.416596,0.722015,0.458255,0.62898,-0.587222,0.509465,0.656378,0.752294,0.056756,-0.416596,0.298703,0.858618,1.72309e-10,4.58403e-10,13.69,0.334792,0.429697,0.80671
1.4,-5.70321,4.08925,11.7545,0.0325413,0.412513,0.490085,0.334792,0.429697,0.80671,-9.15991e-10,4.74605e-10,-9136.76,9136.62,303.205,0.458727,0.0454735,2.02531,0.305766,13.7878,0.943465,0.908141,0.687105,0.331473,0.418665,0.726559,0.461013,0.623988,-0.590129,0.512238,0.659817,0.749088,0.0592308,-0.418665,0.301024,0.856799,1.7182e-10,4.62107e-10,13.7878,0.337864,0.431975,0.8133
1.41,-5.77248,4.15047,11.8134,0.0314914,0.412647,0.490005,0.337864,0.431975,0.8133,-9.22332e-10,4.77948e-10,-9136.62,9136.48,303.206,0.458735,0.045796,2.02809,0.308202,13.8856,0.942439,0.907192,0.682291,0.334379,0.420717,0.73108,0.463757,0.618969,-0.593015,0.514986,0.66323,0.745865,0.0617296,-0.420717,0.303346,0.854973,1.71315e-10,4.65809e-10,13.8856,0.340946,0.434235,0.819904
1.42,-5.84191,4.21214,11.8718,0.0304413,0.412777,0.489929,0.340946,0.434235,0.819904,-9.28661e-10,4.81292e-10,-9136.48,9136.34,303.206,0.458743,0.0461184,2.03086,0.310639,13.9834,0.941401,0.906246,0.677438,0.337289,0.422751,0.73558,0.466486,0.613926,-0.59588,0.517709,0.666616,0.742627,0.064252,-0.422751,0.305667,0.853141,1.70798e-10,4.69505e-10,13.9834,0.344036,0.436479,0.826522
1.43,-5.91149,4.27426,11.9298,0.0293911,0.412902,0.489855,0.344036,0.436479,0.826522,-9.34979e-10,4.84639e-10,-9136.34,9136.2,303.207,0.45875,0.0464408,2.03361,0.313078,14.0812,0.940351,0.905303,0.672545,0.340205,0.424767,0.740057,0.469199,0.608856,-0.598725,0.520406,0.669975,0.739372,0.0667979,-0.424767,0.307989,0.851302,1.70266e-10,4.73194e-10,14.0812,0.347135,0.438705,0.833155
1.44,-5.98122,4.33684,11.9873,0.0283407,0.413022,0.489783,0.347135,0.438705,0.833155,-9.41285e-10,4.87989e-10,-9136.2,9136.06,303.208,0.458758,0.0467632,2.03636,0.31552,14.179,0.939289,0.904362,0.667611,0.343126,0.426766,0.74451,0.471897,0.603762,-0.601549,0.523077,0.673307,0.736102,0.0693671,-0.426766,0.31031,0.849458,1.69723e-10,4.76882e-10,14.179,0.350243,0.440914,0.839801
1.45,-6.0511,4.39988,12.0444,0.0272901,0.413139,0.489714,0.350243,0.440914,0.839801,-9.47579e-10,4.91341e-10,-9136.06,9135.92,303.208,0.458766,0.0470856,2.0391,0.317963,14.2767,0.938215,0.903425,0.662637,0.346052,0.428747,0.748941,0.47458,0.598643,-0.604353,0.525723,0.676612,0.732816,0.0719594,-0.428747,0.312632,0.847607,1.69164e-10,4.80561e-10,14.2767,0.35336,0.443105,0.846462
1.46,-6.12111,4.46337,12.1011,0.0262394,0.41325,0.489648,0.35336,0.443105,0.846462,-9.53861e-10,4.94698e-10,-9135.92,9135.78,303.209,0.458774,0.047408,2.04183,0.320408,14.3745,0.937129,0.90249,0.657623,0.348983,0.43071,0.753347,0.477246,0.593498,-0.607136,0.528342,0.679889,0.729514,0.0745747,-0.43071,0.314954,0.84575,1.68595e-10,4.84235e-10,14.3745,0.356486,0.445279,0.853137
1.47,-6.19125,4.52732,12.1573,0.0251886,0.413358,0.489584,0.356486,0.445279,0.853137,-9.60131e-10,4.98058e-10,-9135.78,9135.63,303.21,0.458782,0.0477304,2.04455,0.322855,14.4723,0.936031,0.90156,0.652569,0.351919,0.432655,0.757729,0.479896,0.58833,-0.609898,0.530935,0.683138,0.726196,0.0772126,-0.432655,0.317276,0.843887,1.68013e-10,4.87902e-10,14.4723,0.35962,0.447435,0.859826
1.48,-6.26152,4.59172,12.213,0.0241376,0.413461,0.489523,0.35962,0.447435,0.859826,-9.66389e-10,5.01422e-10,-9135.63,9135.49,303.21,0.45879,0.0480528,2.04726,0.325304,14.5701,0.93492,0.900632,0.647475,0.354859,0.434582,0.762087,0.48253,0.583137,-0.61264,0.533502,0.68636,0.722863,0.0798731,-0.434582,0.319597,0.842019,1.67418e-10,4.91564e-10,14.5701,0.362763,0.449574,0.86653
1.49,-6.3319,4.65657,12.2683,0.0230865,0.41356,0.489464,0.362763,0.449574,0.86653,-9.72635e-10,5.0479e-10,-9135.49,9135.34,303.211,0.458798,0.0483752,2.04996,0.327755,14.6679,0.933797,0.899709,0.642341,0.357803,0.436491,0.766419,0.485147,0.57792,-0.61536,0.536041,0.689554,0.719514,0.0825558,-0.436491,0.321919,0.840145,1.66813e-10,4.95217e-10,14.6679,0.365914,0.451695,0.873247
1.5,-6.4024,4.72187,12.3232,0.0220353,0.413654,0.489408,0.365914,0.451695,0.873247,-9.78869e-10,5.08164e-10,-9135.34,9135.19,303.211,0.458806,0.0486976,2.05264,0.330208,14.7657,0.932662,0.898789,0.637167,0.360752,0.438381,0.770725,0.487747,0.572679,-0.61806,0.538554,0.69272,0.71615,0.0852606,-0.438381,0.32424,0.838266,1.66199e-10,4.98865e-10,14.7657,0.369074,0.453797,0.879979
1.51,-6.473,4.78762,12.3776,0.0209839,0.413744,0.489355,0.369074,0.453797,0.879979,-9.8509e-10,5.11543e-10,-9135.19,9135.05,303.212,0.458814,0.04902,2.05532,0.332663,14.8635,0.931514,0.897873,0.631954,0.363705,0.440254,0.775006,0.49033,0.567415,-0.620739,0.54104,0.695857,0.71277,0.0879873,-0.440254,0.326561,0.836382,1.65572e-10,5.02503e-10,14.8635,0.372242,0.455881,0.886725
1.52,-6.5437,4.85383,12.4315,0.0199325,0.413829,0.489304,0.372242,0.455881,0.886725,-9.91299e-10,5.14927e-10,-9135.05,9134.9,303.213,0.458823,0.0493424,2.05799,0.335119,14.9613,0.930354,0.896962,0.626701,0.366662,0.442108,0.77926,0.492895,0.562127,-0.623397,0.543498,0.698966,0.709375,0.0907357,-0.442108,0.328882,0.834492,1.6494e-10,5.06133e-10,14.9613,0.375418,0.457948,0.893484
1.53,-6.61449,4.92048,12.485,0.0188809,0.41391,0.489256,0.375418,0.457948,0.893484,-9.97496e-10,5.18318e-10,-9134.9,9134.75,303.213,0.458831,0.0496648,2.06065,0.337577,15.059,0.929182,0.896055,0.621408,0.369623,0.443944,0.783487,0.495443,0.556815,-0.626034,0.545928,0.702047,0.705965,0.0935056,-0.443944,0.331202,0.832598,1.64297e-10,5.09756e-10,15.059,0.378603,0.459995,0.900258
