time,x_vel_mps,y_vel_mps,z_vel_mps,roll_vel_rps,pitch_vel_rps,yaw_vel_rps,roll_angle,pitch_angle,yaw_angle,x_pos_ned,y_pos_ned,z_pos_ned,altitude_m,speed_of_sound_mps,air_density,mach,alpha_rad,beta_rad,true_airspeed_mps,c_phi,c_theta,c_psi,s_phi,s_theta,s_psi,t_theta,dcm_b2i_11,dcm_b2i_12,dcm_b2i_13,dcm_b2i_21,dcm_b2i_22,dcm_b2i_23,dcm_b2i_31,dcm_b2i_32,dcm_b2i_33,vx_ned_mps,vy_ned_mps,vz_ned_mps,roll_dcm_rad,pitch_dcm_rad,yaw_dcm_rad
0,1e-10,0,0,0.174533,0.349066,0.523599,0,0,0,0,0,-9146.34,9146.34,303.163,0.458189,0.000322552,1.57429,0.00174971,0.0977858,0.999998,0.999994,0.999986,0.00174972,0.00348996,0.0052372,0.00348998,0.99998,-0.00523109,0.00349907,0.00523717,0.999985,-0.00173142,-0.00348996,0.00174971,0.999992,1.01173e-10,3.01293e-12,0.0977858,0.00174972,0.00348997,0.00523722
0.01,-0.000341269,0.000171097,0.0977851,0.173582,0.349841,0.523233,0.00174972,0.00348997,0.00523722,-7.09388e-12,3.51547e-12,-9146.34,9146.34,303.163,0.458189,0.000645103,1.57777,0.00350812,0.195572,0.999994,0.999976,0.999945,0.0035082,0.00697841,0.0104768,0.00697858,0.999921,-0.0104523,0.00701473,0.0104765,0.999939,-0.00343489,-0.00697841,0.00350811,0.999969,1.02342e-10,6.03667e-12,0.195572,0.0035082,0.00697846,0.010477
0.02,-0.00136478,0.000686087,0.195566,0.172629,0.350608,0.522868,0.0035082,0.00697846,0.010477,-1.41975e-11,7.03897e-12,-9146.34,9146.34,303.163,0.458189,0.000967655,1.58126,0.00527515,0.293358,0.999986,0.999945,0.999876,0.00527541,0.0104652,0.0157188,0.0104657,0.999822,-0.0156633,0.0105466,0.0157179,0.999863,-0.00511026,-0.0104652,0.00527512,0.999931,1.03507e-10,9.07118e-12,0.293358,0.00527543,0.0104654,0.0157194
0.03,-0.00307003,0.0015475,0.293337,0.171672,0.351366,0.522502,0.00527543,0.0104654,0.0157194,-2.13105e-11,1.05702e-11,-9146.34,9146.33,303.163,0.458189,0.00129021,1.58475,0.0070507,0.391143,0.999975,0.999903,0.99978,0.00705133,0.0139501,0.020963,0.0139514,0.999683,-0.0208642,0.0140945,0.020961,0.999757,-0.00675735,-0.0139501,0.00705064,0.999878,1.04667e-10,1.21164e-11,0.391143,0.00705139,0.0139505,0.0209646
0.04,-0.00545647,0.00275781,0.391096,0.170712,0.352115,0.522136,0.00705139,0.0139505,0.0209646,-2.84328e-11,1.41089e-11,-9146.33,9146.33,303.163,0.458189,0.00161276,1.58823,0.00883471,0.488929,0.999961,0.999848,0.999656,0.00883594,0.0174329,0.0262096,0.0174356,0.999505,-0.0260546,0.0176578,0.0262056,0.999621,-0.00837601,-0.0174329,0.0088346,0.999809,1.05824e-10,1.51723e-11,0.488929,0.00883605,0.0174338,0.0262126
0.05,-0.00852346,0.00431949,0.488836,0.16975,0.352855,0.52177,0.00883605,0.0174338,0.0262126,-3.55642e-11,1.76548e-11,-9146.33,9146.32,303.163,0.45819,0.00193531,1.59171,0.0106271,0.586715,0.999944,0.999781,0.999505,0.0106292,0.0209136,0.0314584,0.0209181,0.999286,-0.0312344,0.0212364,0.0314515,0.999456,-0.00996608,-0.0209136,0.0106269,0.999725,1.06976e-10,1.82389e-11,0.586715,0.0106294,0.0209151,0.0314635
0.06,-0.0122703,0.00623495,0.586554,0.168784,0.353587,0.521404,0.0106294,0.0209151,0.0314635,-4.27043e-11,2.12077e-11,-9146.32,9146.32,303.164,0.45819,0.00225786,1.59519,0.0124277,0.684501,0.999923,0.999702,0.999326,0.0124311,0.0243918,0.0367093,0.0243991,0.999029,-0.0364035,0.0248298,0.0366984,0.99926,-0.0115274,-0.0243918,0.0124274,0.999625,1.08123e-10,2.1316e-11,0.684501,0.0124314,0.0243943,0.0367176
0.07,-0.0166962,0.00850658,0.684244,0.167816,0.354309,0.521039,0.0124314,0.0243943,0.0367176,-4.9853e-11,2.47671e-11,-9146.32,9146.31,303.164,0.45819,0.00258041,1.59867,0.0142366,0.782287,0.999899,0.999612,0.999119,0.0142416,0.0278675,0.0419624,0.0278784,0.998731,-0.0415617,0.0284378,0.0419461,0.999035,-0.0130598,-0.0278675,0.0142361,0.99951,1.09265e-10,2.44037e-11,0.782287,0.0142421,0.0278711,0.0419748
0.08,-0.0218004,0.0111367,0.781904,0.166845,0.355023,0.520673,0.0142421,0.0278711,0.0419748,-5.701e-11,2.8333e-11,-9146.31,9146.3,303.164,0.458191,0.00290296,1.60215,0.0160535,0.880073,0.999871,0.999509,0.998885,0.0160607,0.0313405,0.0472177,0.0313559,0.998394,-0.0467088,0.0320599,0.0471945,0.99878,-0.0145632,-0.0313405,0.0160529,0.99938,1.10402e-10,2.75018e-11,0.880073,0.0160614,0.0313456,0.0472352
0.09,-0.0275819,0.0141277,0.879527,0.165872,0.355728,0.520308,0.0160614,0.0313456,0.0472352,-6.41751e-11,3.1905e-11,-9146.3,9146.29,303.164,0.458191,0.00322551,1.60562,0.0178785,0.977858,0.99984,0.999394,0.998622,0.0178884,0.0348106,0.0524749,0.0348317,0.998017,-0.0518447,0.0356957,0.0524431,0.998495,-0.0160374,-0.0348106,0.0178776,0.999234,1.11533e-10,3.06104e-11,0.977858,0.0178894,0.0348176,0.052499
0.1,-0.0340398,0.0174817,0.977109,0.164895,0.356423,0.519942,0.0178894,0.0348176,0.052499,-7.1348e-11,3.54829e-11,-9146.29,9146.28,303.164,0.458192,0.00354806,1.60909,0.0197115,1.07564,0.999805,0.999267,0.998332,0.0197246,0.0382776,0.0577342,0.0383056,0.9976,-0.0569692,0.0393451,0.0576919,0.998181,-0.0174823,-0.0382776,0.0197102,0.999073,1.12659e-10,3.37293e-11,1.07564,0.0197259,0.0382869,0.0577663
0.11,-0.041173,0.0212012,1.07465,0.163916,0.35711,0.519577,0.0197259,0.0382869,0.0577663,-7.85284e-11,3.90663e-11,-9146.28,9146.27,303.164,0.458192,0.00387062,1.61256,0.0215523,1.17343,0.999767,0.999128,0.998014,0.0215694,0.0417413,0.0629955,0.0417777,0.997144,-0.0620823,0.0430075,0.0629405,0.997838,-0.0188977,-0.0417413,0.0215506,0.998896,1.13779e-10,3.68585e-11,1.17343,0.0215711,0.0417534,0.0630372
0.12,-0.0489805,0.0252881,1.17213,0.162935,0.357788,0.519212,0.0215711,0.0417534,0.0630372,-8.57161e-11,4.26552e-11,-9146.27,9146.26,303.164,0.458193,0.00419317,1.61603,0.0234008,1.27122,0.999726,0.998978,0.997668,0.0234227,0.0452016,0.0682586,0.0452478,0.996648,-0.0671836,0.0466826,0.0681888,0.997466,-0.0202835,-0.0452016,0.0233987,0.998704,1.14894e-10,3.99979e-11,1.27122,0.0234248,0.045217,0.0683117
0.13,-0.057461,0.0297448,1.26957,0.161951,0.358457,0.518847,0.0234248,0.045217,0.0683117,-9.29109e-11,4.62491e-11,-9146.26,9146.25,303.164,0.458194,0.00451572,1.61949,0.0252571,1.369,0.99968,0.998815,0.997293,0.0252844,0.0486583,0.0735236,0.048716,0.996112,-0.0722731,0.05037,0.0734365,0.997065,-0.0216396,-0.0486583,0.0252544,0.998496,1.16002e-10,4.31474e-11,1.369,0.0252871,0.0486775,0.07359
0.14,-0.0666132,0.0345734,1.36694,0.160964,0.359116,0.518482,0.0252871,0.0486775,0.07359,-1.00112e-10,4.98479e-11,-9146.25,9146.23,303.164,0.458195,0.00483827,1.62295,0.027121,1.46679,0.999631,0.998641,0.996891,0.0271546,0.0521112,0.0787904,0.0521821,0.995537,-0.0773507,0.0540695,0.0786834,0.996635,-0.0229658,-0.0521112,0.0271177,0.998273,1.17103e-10,4.6307e-11,1.46679,0.0271579,0.0521348,0.0788722
0.15,-0.076436,0.0397759,1.46425,0.159975,0.359767,0.518118,0.0271579,0.0521348,0.0788722,-1.0732e-10,5.34513e-11,-9146.23,9146.22,303.164,0.458196,0.00516082,1.62641,0.0289924,1.56457,0.999578,0.998455,0.996461,0.0290332,0.0555601,0.084059,0.0556461,0.994922,-0.0824162,0.0577806,0.0839292,0.996176,-0.0242621,-0.0555601,0.0289884,0.998034,1.18199e-10,4.94766e-11,1.56457,0.0290373,0.0555887,0.0841583
0.16,-0.0869279,0.0453544,1.5615,0.158983,0.360409,0.517753,0.0290373,0.0555887,0.0841583,-1.14535e-10,5.70591e-11,-9146.22,9146.2,303.164,0.458196,0.00548337,1.62986,0.0308713,1.66236,0.999522,0.998258,0.996002,0.0309203,0.0590049,0.0893293,0.0591079,0.994267,-0.0874694,0.061503,0.0891737,0.995689,-0.0255283,-0.0590049,0.0308664,0.99778,1.19287e-10,5.26561e-11,1.66236,0.0309252,0.0590392,0.0894485
0.17,-0.0980874,0.0513111,1.65867,0.15799,0.361041,0.51739,0.0309252,0.0590392,0.0894485,-1.21755e-10,6.0671e-11,-9146.2,9146.18,303.164,0.458197,0.00580592,1.63332,0.0327576,1.76015,0.999461,0.998048,0.995515,0.0328157,0.0624454,0.0946012,0.0625676,0.993572,-0.0925103,0.0652363,0.0944166,0.995173,-0.0267643,-0.0624454,0.0327517,0.997511,1.20368e-10,5.58454e-11,1.76015,0.0328216,0.0624861,0.0947429
0.18,-0.109913,0.0576477,1.75576,0.156994,0.361665,0.517026,0.0328216,0.0624861,0.0947429,-1.28981e-10,6.42868e-11,-9146.18,9146.16,303.164,0.458198,0.00612847,1.63677,0.0346511,1.85793,0.999397,0.997827,0.995,0.0347196,0.0658815,0.0998748,0.0660249,0.992838,-0.0975386,0.0689802,0.0996578,0.994629,-0.0279701,-0.0658815,0.0346442,0.997226,1.21443e-10,5.90445e-11,1.85793,0.0347266,0.0659292,0.100042
0.19,-0.122403,0.0643664,1.85278,0.155995,0.362279,0.516663,0.0347266,0.0659292,0.100042,-1.36212e-10,6.79064e-11,-9146.16,9146.15,303.164,0.458199,0.00645101,1.64021,0.0365518,1.95572,0.999329,0.997595,0.994456,0.0366318,0.0693129,0.10515,0.06948,0.992065,-0.102554,0.0727342,0.104897,0.994056,-0.0291454,-0.0693129,0.0365437,0.996925,1.2251e-10,6.22532e-11,1.95572,0.03664,0.0693685,0.105345
0.2,-0.135556,0.0714691,1.9497,0.154994,0.362884,0.5163,0.03664,0.0693685,0.105345,-1.43448e-10,7.15293e-11,-9146.15,9146.13,303.164,0.458201,0.00677356,1.64365,0.0384597,2.0535,0.999257,0.997351,0.993884,0.0385523,0.0727395,0.110426,0.0729327,0.991251,-0.107557,0.0764981,0.110134,0.993455,-0.0302902,-0.0727395,0.0384502,0.99661,1.23569e-10,6.54715e-11,2.0535,0.0385619,0.0728038,0.110652
0.21,-0.149371,0.0789576,2.04654,0.153992,0.36348,0.515937,0.0385619,0.0728038,0.110652,-1.50689e-10,7.51555e-11,-9146.13,9146.1,303.164,0.458202,0.00709611,1.64709,0.0403746,2.15129,0.99918,0.997096,0.993284,0.0404812,0.076161,0.115704,0.0763829,0.990399,-0.112547,0.0802713,0.115368,0.992826,-0.0314044,-0.076161,0.0403636,0.996278,1.2462e-10,6.86992e-11,2.15129,0.0404923,0.0762348,0.115964
0.22,-0.163844,0.0868338,2.14328,0.152987,0.364067,0.515575,0.0404923,0.0762348,0.115964,-1.57935e-10,7.87848e-11,-9146.1,9146.08,303.165,0.458203,0.00741866,1.65053,0.0422965,2.24907,0.9991,0.996829,0.992655,0.0424184,0.0795774,0.120984,0.0798306,0.989506,-0.117524,0.0840537,0.1206,0.992169,-0.0324879,-0.0795774,0.0422839,0.995931,1.25664e-10,7.19362e-11,2.24907,0.0424311,0.0796617,0.121281
0.23,-0.178976,0.0950995,2.23992,0.15198,0.364645,0.515213,0.0424311,0.0796617,0.121281,-1.65184e-10,8.24168e-11,-9146.08,9146.06,303.165,0.458204,0.00774121,1.65396,0.0442252,2.34686,0.999015,0.996551,0.991997,0.0443638,0.0829885,0.126264,0.0832758,0.988575,-0.122488,0.0878448,0.125829,0.991485,-0.0335406,-0.0829885,0.0442108,0.995569,1.26699e-10,7.51826e-11,2.34686,0.0443784,0.083084,0.126602
0.24,-0.194762,0.103757,2.33646,0.150971,0.365213,0.514852,0.0443784,0.083084,0.126602,-1.72438e-10,8.60514e-11,-9146.06,9146.04,303.165,0.458206,0.00806376,1.65739,0.0461608,2.44465,0.998927,0.996261,0.99131,0.0463176,0.086394,0.131546,0.0867183,0.987604,-0.127438,0.0916443,0.131054,0.990773,-0.0345625,-0.086394,0.0461444,0.995192,1.27726e-10,7.8438e-11,2.44465,0.0463342,0.0865019,0.131928
0.25,-0.211203,0.112807,2.43289,0.149959,0.365773,0.514491,0.0463342,0.0865019,0.131928,-1.79695e-10,8.96884e-11,-9146.04,9146.01,303.165,0.458207,0.0083863,1.66082,0.0481031,2.54243,0.998834,0.99596,0.990595,0.0482796,0.0897939,0.136829,0.0901581,0.986593,-0.132375,0.0954517,0.136276,0.990033,-0.0355534,-0.0897939,0.0480845,0.994799,1.28744e-10,8.17025e-11,2.54243,0.0482983,0.089915,0.13726
0.26,-0.228295,0.122252,2.52921,0.148946,0.366323,0.514131,0.0482983,0.089915,0.13726,-1.86956e-10,9.33276e-11,-9146.01,9145.99,303.165,0.458208,0.00870885,1.66424,0.050052,2.64022,0.998737,0.995649,0.98985,0.0502498,0.0931879,0.142113,0.0935952,0.985543,-0.137298,0.0992667,0.141495,0.989265,-0.0365133,-0.0931879,0.0500311,0.994391,1.29754e-10,8.4976e-11,2.64022,0.0502709,0.0933233,0.142596
0.27,-0.246036,0.132093,2.62541,0.147931,0.366864,0.513771,0.0502709,0.0933233,0.142596,-1.94219e-10,9.69688e-11,-9145.99,9145.96,303.165,0.45821,0.0090314,1.66765,0.0520075,2.738,0.998635,0.995326,0.989077,0.0522282,0.0965759,0.147398,0.0970294,0.984454,-0.142208,0.103089,0.146709,0.988471,-0.037442,-0.0965759,0.0519841,0.993967,1.30755e-10,8.82583e-11,2.738,0.052252,0.0967266,0.147937
0.28,-0.264425,0.142333,2.72149,0.146915,0.367395,0.513412,0.052252,0.0967266,0.147937,-2.01485e-10,1.00612e-10,-9145.96,9145.93,303.165,0.458211,0.00935394,1.67107,0.0539695,2.83579,0.998529,0.994992,0.988275,0.0542148,0.0999576,0.152684,0.100461,0.983325,-0.147104,0.106918,0.15192,0.987649,-0.0383397,-0.0999576,0.0539433,0.993528,1.31746e-10,9.15493e-11,2.83579,0.0542414,0.100125,0.153284
0.29,-0.283459,0.152972,2.81744,0.145896,0.367918,0.513053,0.0542414,0.100125,0.153284,-2.08753e-10,1.04256e-10,-9145.93,9145.9,303.165,0.458213,0.00967649,1.67448,0.0559379,2.93358,0.998419,0.994647,0.987444,0.0562097,0.103333,0.157971,0.103889,0.982158,-0.151986,0.110754,0.157126,0.9868,-0.039206,-0.103333,0.0559088,0.993074,1.32728e-10,9.48489e-11,2.93358,0.0562393,0.103518,0.158636
0.3,-0.303135,0.164013,2.91326,0.144876,0.368431,0.512695,0.0562393,0.103518,0.158636,-2.16024e-10,1.07902e-10,-9145.9,9145.87,303.165,0.458215,0.00999903,1.67788,0.0579127,3.03136,0.998304,0.994291,0.986583,0.0582126,0.106702,0.163259,0.107315,0.980951,-0.156854,0.114596,0.162327,0.985924,-0.0400411,-0.106702,0.0578803,0.992605,1.337e-10,9.8157e-11,3.03136,0.0582456,0.106905,0.163993
0.31,-0.323452,0.175456,3.00894,0.143853,0.368935,0.512337,0.0582456,0.106905,0.163993,-2.23295e-10,1.1155e-10,-9145.87,9145.84,303.166,0.458216,0.0103216,1.68128,0.0598937,3.12915,0.998185,0.993924,0.985694,0.0602238,0.110064,0.168548,0.110737,0.979705,-0.161708,0.118443,0.167524,0.985022,-0.0408448,-0.110064,0.0598579,0.99212,1.34662e-10,1.01473e-10,3.12915,0.0602602,0.110287,0.169356
0.32,-0.344407,0.187304,3.10449,0.14283,0.36943,0.51198,0.0602602,0.110287,0.169356,-2.30569e-10,1.15198e-10,-9145.84,9145.81,303.166,0.458218,0.0106441,1.68468,0.0618808,3.22693,0.998061,0.993547,0.984774,0.062243,0.113419,0.173837,0.114156,0.97842,-0.166548,0.122296,0.172715,0.984092,-0.0416171,-0.113419,0.0618414,0.991621,1.35615e-10,1.04798e-10,3.22693,0.0622833,0.113664,0.174724
0.33,-0.365996,0.199558,3.19989,0.141804,0.369915,0.511624,0.0622833,0.113664,0.174724,-2.37843e-10,1.18847e-10,-9145.81,9145.78,303.166,0.45822,0.0109667,1.68807,0.0638741,3.32472,0.997933,0.993159,0.983826,0.0642704,0.116767,0.179126,0.117572,0.977096,-0.171373,0.126154,0.177901,0.983136,-0.042358,-0.116767,0.0638307,0.991106,1.36557e-10,1.08131e-10,3.32472,0.0643147,0.117034,0.180098
0.34,-0.388219,0.212219,3.29515,0.140777,0.370391,0.511268,0.0643147,0.117034,0.180098,-2.45118e-10,1.22497e-10,-9145.78,9145.74,303.166,0.458222,0.0112892,1.69146,0.0658735,3.4225,0.997799,0.992761,0.982848,0.0663058,0.120108,0.184417,0.120984,0.975733,-0.176183,0.130016,0.183082,0.982154,-0.0430673,-0.120108,0.0658258,0.990576,1.37489e-10,1.11471e-10,3.4225,0.0663545,0.120399,0.185478
0.35,-0.411072,0.225289,3.39025,0.139748,0.370858,0.510913,0.0663545,0.120399,0.185478,-2.52393e-10,1.26148e-10,-9145.74,9145.71,303.166,0.458224,0.0116118,1.69484,0.0678787,3.52029,0.997661,0.992352,0.981841,0.0683494,0.123442,0.189707,0.124393,0.974331,-0.18098,0.133883,0.188256,0.981145,-0.0437451,-0.123442,0.0678266,0.990031,1.3841e-10,1.1482e-10,3.52029,0.0684027,0.123758,0.190864
0.36,-0.434552,0.238769,3.4852,0.138718,0.371315,0.510559,0.0684027,0.123758,0.190864,-2.59668e-10,1.29799e-10,-9145.71,9145.67,303.166,0.458226,0.0119343,1.69822,0.0698899,3.61808,0.997519,0.991932,0.980804,0.070401,0.126768,0.194998,0.127799,0.972891,-0.185761,0.137754,0.193425,0.98011,-0.0443913,-0.126768,0.069833,0.989471,1.3932e-10,1.18176e-10,3.61808,0.0704592,0.12711,0.196256
0.37,-0.458657,0.252661,3.57998,0.137687,0.371763,0.510205,0.0704592,0.12711,0.196256,-2.66943e-10,1.3345e-10,-9145.67,9145.64,303.166,0.458228,0.0122568,1.70159,0.0719068,3.71586,0.997371,0.991503,0.979737,0.0724606,0.130086,0.200289,0.131201,0.971412,-0.190528,0.141628,0.198587,0.979049,-0.0450059,-0.130086,0.0718449,0.988896,1.4022e-10,1.2154e-10,3.71586,0.0725242,0.130456,0.201653
0.38,-0.483383,0.266966,3.6746,0.136654,0.372202,0.509852,0.0725242,0.130456,0.201653,-2.74217e-10,1.37101e-10,-9145.64,9145.6,303.167,0.45823,0.0125794,1.70496,0.0739295,3.81365,0.997219,0.991063,0.97864,0.0745283,0.133397,0.205581,0.1346,0.969894,-0.195279,0.145506,0.203743,0.977962,-0.0455888,-0.133397,0.0738622,0.988306,1.41108e-10,1.24911e-10,3.81365,0.0745974,0.133796,0.207057
0.39,-0.508729,0.281684,3.76905,0.135619,0.372632,0.5095,0.0745974,0.133796,0.207057,-2.8149e-10,1.40753e-10,-9145.6,9145.56,303.167,0.458232,0.0129019,1.70832,0.0759578,3.91143,0.997062,0.990613,0.977514,0.0766039,0.136699,0.210872,0.137995,0.968337,-0.200016,0.149386,0.208893,0.97685,-0.0461401,-0.136699,0.0758848,0.987702,1.41985e-10,1.28289e-10,3.91143,0.0766791,0.137129,0.212467
0.4,-0.53469,0.296818,3.86333,0.134583,0.373052,0.509148,0.0766791,0.137129,0.212467,-2.88762e-10,1.44404e-10,-9145.56,9145.52,303.167,0.458234,0.0132245,1.71168,0.0779918,4.00922,0.996899,0.990152,0.976357,0.0786876,0.139993,0.216163,0.141386,0.966742,-0.204738,0.153269,0.214035,0.975711,-0.0466596,-0.139993,0.0779127,0.987082,1.4285e-10,1.31675e-10,4.00922,0.078769,0.140455,0.217883
0.41,-0.561264,0.312369,3.95743,0.133546,0.373463,0.508798,0.078769,0.140455,0.217883,-2.96032e-10,1.48054e-10,-9145.52,9145.48,303.167,0.458236,0.013547,1.71504,0.0800312,4.10701,0.996732,0.989682,0.975171,0.0807792,0.143279,0.221455,0.144773,0.965109,-0.209444,0.157154,0.21917,0.974547,-0.0471474,-0.143279,0.0799458,0.986448,1.43703e-10,1.35067e-10,4.10701,0.0808673,0.143774,0.223306
0.42,-0.588448,0.328338,4.05135,0.132508,0.373864,0.508448,0.0808673,0.143774,0.223306,-3.033e-10,1.51705e-10,-9145.48,9145.44,303.167,0.458239,0.0138695,1.71838,0.0820761,4.20479,0.99656,0.989202,0.973954,0.0828788,0.146556,0.226746,0.148156,0.963438,-0.214136,0.16104,0.224297,0.973357,-0.0476035,-0.146556,0.0819839,0.985799,1.44544e-10,1.38466e-10,4.20479,0.082974,0.147086,0.228735
0.43,-0.616239,0.344725,4.14508,0.131469,0.374257,0.508099,0.082974,0.147086,0.228735,-3.10565e-10,1.55355e-10,-9145.44,9145.39,303.167,0.458241,0.0141921,1.72173,0.0841263,4.30258,0.996382,0.988713,0.972707,0.0849864,0.149825,0.232036,0.151535,0.961728,-0.218811,0.164928,0.229417,0.972143,-0.0480278,-0.149825,0.0840271,0.985136,1.45374e-10,1.41872e-10,4.30258,0.085089,0.150391,0.234171
0.44,-0.644633,0.361533,4.23862,0.130428,0.37464,0.50775,0.085089,0.150391,0.234171,-3.17828e-10,1.59004e-10,-9145.39,9145.35,303.168,0.458243,0.0145146,1.72506,0.0861818,4.40036,0.996199,0.988213,0.97143,0.0871018,0.153084,0.237327,0.15491,0.95998,-0.223472,0.168817,0.234529,0.970902,-0.0484204,-0.153084,0.0860752,0.984457,1.46191e-10,1.45285e-10,4.40036,0.0872123,0.153689,0.239613
0.45,-0.673627,0.378762,4.33197,0.129386,0.375013,0.507403,0.0872123,0.153689,0.239613,-3.25087e-10,1.62652e-10,-9145.35,9145.31,303.168,0.458246,0.0148372,1.72839,0.0882426,4.49815,0.996011,0.987704,0.970122,0.0892252,0.156335,0.242616,0.158281,0.958194,-0.228116,0.172707,0.239633,0.969637,-0.0487812,-0.156335,0.0881281,0.983765,1.46995e-10,1.48703e-10,4.49815,0.089344,0.156979,0.245062
0.46,-0.703218,0.396413,4.42512,0.128344,0.375377,0.507056,0.089344,0.156979,0.245062,-3.32342e-10,1.66299e-10,-9145.31,9145.26,303.168,0.458248,0.0151597,1.73172,0.0903085,4.59594,0.995818,0.987186,0.968784,0.0913564,0.159576,0.247905,0.161648,0.95637,-0.232745,0.176596,0.244729,0.968347,-0.0491103,-0.159576,0.0901858,0.983057,1.47787e-10,1.52128e-10,4.59594,0.091484,0.160261,0.250518
0.47,-0.733402,0.414488,4.51807,0.1273,0.375732,0.506711,0.091484,0.160261,0.250518,-3.39594e-10,1.69946e-10,-9145.26,9145.21,303.168,0.458251,0.0154822,1.73504,0.0923794,4.69372,0.99562,0.986658,0.967416,0.0934955,0.162808,0.253194,0.16501,0.954508,-0.237359,0.180486,0.249816,0.967032,-0.0494076,-0.162808,0.0922481,0.982336,1.48565e-10,1.55559e-10,4.69372,0.0936323,0.163536,0.25598
0.48,-0.764176,0.432987,4.61081,0.126255,0.376078,0.506366,0.0936323,0.163536,0.25598,-3.46842e-10,1.73591e-10,-9145.21,9145.17,303.168,0.458254,0.0158048,1.73835,0.0944554,4.79151,0.995416,0.986121,0.966016,0.0956425,0.166031,0.258481,0.168367,0.952609,-0.241956,0.184375,0.254894,0.965692,-0.0496732,-0.166031,0.094315,0.9816,1.49331e-10,1.58995e-10,4.79151,0.0957889,0.166803,0.26145
0.49,-0.795537,0.451911,4.70334,0.125209,0.376414,0.506022,0.0957889,0.166803,0.26145,-3.54084e-10,1.77235e-10,-9145.17,9145.12,303.169,0.458256,0.0161273,1.74166,0.0965364,4.88929,0.995206,0.985574,0.964586,0.0977973,0.169243,0.263768,0.171721,0.950671,-0.246538,0.188263,0.259963,0.964328,-0.049907,-0.169243,0.0963865,0.98085,1.50083e-10,1.62437e-10,4.88929,0.0979538,0.170062,0.266926
0.5,-0.82748,0.471262,4.79566,0.124163,0.376741,0.505679,0.0979538,0.170062,0.266926,-3.61322e-10,1.80877e-10,-9145.12,9145.07,303.169,0.458259,0.0164498,1.74496,0.0986222,4.98708,0.994991,0.985019,0.963125,0.0999599,0.172446,0.269053,0.175069,0.948697,-0.251103,0.19215,0.265022,0.962939,-0.0501091,-0.172446,0.0984624,0.980085,1.50822e-10,1.65885e-10,4.98708,0.100127,0.173313,0.27241
0.51,-0.860003,0.49104,4.88776,0.123115,0.377058,0.505337,0.100127,0.173313,0.27241,-3.68554e-10,1.84518e-10,-9145.07,9145.02,303.169,0.458262,0.0167724,1.74826,0.100713,5.08486,0.994771,0.984455,0.961634,0.10213,0.175639,0.274337,0.178413,0.946685,-0.255653,0.196035,0.270073,0.961526,-0.0502795,-0.175639,0.100543,0.979307,1.51548e-10,1.69338e-10,5.08486,0.102309,0.176555,0.2779
0.52,-0.893101,0.511246,4.97964,0.122067,0.377367,0.504996,0.102309,0.176555,0.2779,-3.75781e-10,1.88158e-10,-9145.02,9144.97,303.169,0.458265,0.0170949,1.75155,0.102808,5.18265,0.994545,0.983881,0.960111,0.104308,0.178822,0.27962,0.181751,0.944635,-0.260186,0.199919,0.275113,0.960089,-0.0504182,-0.178822,0.102627,0.978514,1.52259e-10,1.72796e-10,5.18265,0.104498,0.179789,0.283398
0.53,-0.926771,0.53188,5.0713,0.121018,0.377665,0.504656,0.104498,0.179789,0.283398,-3.83001e-10,1.91796e-10,-9144.97,9144.92,303.17,0.458268,0.0174174,1.75483,0.104908,5.28044,0.994313,0.9833,0.958557,0.106494,0.181994,0.284902,0.185085,0.942548,-0.264703,0.2038,0.280144,0.958628,-0.0505252,-0.181994,0.104716,0.977708,1.52957e-10,1.76258e-10,5.28044,0.106697,0.183014,0.288904
0.54,-0.961009,0.552945,5.16272,0.119969,0.377955,0.504316,0.106697,0.183014,0.288904,-3.90215e-10,1.95433e-10,-9144.92,9144.86,303.17,0.458271,0.01774,1.75811,0.107013,5.37822,0.994076,0.982709,0.956972,0.108688,0.185156,0.290181,0.188414,0.940425,-0.269204,0.207679,0.285164,0.957142,-0.0506006,-0.185156,0.106809,0.976887,1.53641e-10,1.79726e-10,5.37822,0.108903,0.186231,0.294416
0.55,-0.995812,0.57444,5.25392,0.118918,0.378235,0.503978,0.108903,0.186231,0.294416,-3.97422e-10,1.99068e-10,-9144.86,9144.81,303.17,0.458274,0.0180625,1.76138,0.109122,5.47601,0.993833,0.98211,0.955355,0.110889,0.188308,0.29546,0.191738,0.938264,-0.273688,0.211554,0.290174,0.955633,-0.0506445,-0.188308,0.108905,0.976053,1.5431e-10,1.83198e-10,5.47601,0.111118,0.189439,0.299937
0.56,-1.03117,0.596367,5.34488,0.117867,0.378506,0.503641,0.111118,0.189439,0.299937,-4.04621e-10,2.02701e-10,-9144.81,9144.75,303.17,0.458277,0.018385,1.76465,0.111236,5.57379,0.993584,0.981503,0.953707,0.113098,0.191448,0.300736,0.195056,0.936066,-0.278156,0.215427,0.295173,0.9541,-0.0506568,-0.191448,0.111006,0.975205,1.54965e-10,1.86673e-10,5.57379,0.113341,0.192637,0.305464
0.57,-1.06709,0.618726,5.43559,0.116816,0.378768,0.503305,0.113341,0.192637,0.305464,-4.11813e-10,2.06332e-10,-9144.75,9144.7,303.17,0.45828,0.0187076,1.7679,0.113354,5.67158,0.993329,0.980887,0.952028,0.115315,0.194578,0.30601,0.198369,0.933832,-0.282608,0.219295,0.300162,0.952543,-0.0506375,-0.194578,0.113111,0.974344,1.55606e-10,1.90154e-10,5.67158,0.115572,0.195827,0.311
0.58,-1.10356,0.641518,5.52607,0.115763,0.37902,0.50297,0.115572,0.195827,0.311,-4.18997e-10,2.09961e-10,-9144.7,9144.64,303.171,0.458283,0.0190301,1.77116,0.115476,5.76937,0.993068,0.980263,0.950317,0.117539,0.197696,0.311283,0.201677,0.931561,-0.287042,0.22316,0.305139,0.950963,-0.0505868,-0.197696,0.115219,0.973468,1.56231e-10,1.93638e-10,5.76937,0.117812,0.199007,0.316542
0.59,-1.14058,0.664743,5.6163,0.114711,0.379263,0.502635,0.117812,0.199007,0.316542,-4.26172e-10,2.13589e-10,-9144.64,9144.58,303.171,0.458286,0.0193526,1.7744,0.117603,5.86715,0.992802,0.979632,0.948575,0.119771,0.200803,0.316553,0.204978,0.929254,-0.29146,0.22702,0.310105,0.94936,-0.0505047,-0.200803,0.117332,0.97258,1.56842e-10,1.97125e-10,5.86715,0.120059,0.202178,0.322093
0.6,-1.17814,0.688403,5.70627,0.113658,0.379496,0.502302,0.120059,0.202178,0.322093,-4.33339e-10,2.17214e-10,-9144.58,9144.52,303.171,0.458289,0.0196751,1.77764,0.119733,5.96494,0.992529,0.978992,0.946801,0.122011,0.203899,0.32182,0.208275,0.92691,-0.295862,0.230875,0.31506,0.947733,-0.0503912,-0.203899,0.119448,0.971678,1.57438e-10,2.00616e-10,5.96494,0.122316,0.205339,0.327652
0.61,-1.21625,0.712497,5.796,0.112604,0.379721,0.50197,0.122316,0.205339,0.327652,-4.40496e-10,2.20838e-10,-9144.52,9144.46,303.172,0.458293,0.0199977,1.78087,0.121868,6.06272,0.99225,0.978344,0.944995,0.124258,0.206983,0.327086,0.211565,0.92453,-0.300246,0.234725,0.320002,0.946083,-0.0502464,-0.206983,0.121567,0.970762,1.58018e-10,2.0411e-10,6.06272,0.12458,0.208491,0.333218
0.62,-1.25488,0.737027,5.88546,0.11155,0.379936,0.501639,0.12458,0.208491,0.333218,-4.47644e-10,2.24459e-10,-9144.46,9144.4,303.172,0.458296,0.0203202,1.78409,0.124007,6.16051,0.991965,0.977689,0.943157,0.126512,0.210056,0.332348,0.214849,0.922114,-0.304614,0.23857,0.324933,0.944411,-0.0500703,-0.210056,0.12369,0.969834,1.58584e-10,2.07607e-10,6.16051,0.126852,0.211632,0.338792
0.63,-1.29405,0.761993,5.97467,0.110496,0.380142,0.501309,0.126852,0.211632,0.338792,-4.54781e-10,2.28078e-10,-9144.4,9144.34,303.172,0.4583,0.0206427,1.78731,0.126151,6.2583,0.991674,0.977027,0.941287,0.128775,0.213117,0.337608,0.218128,0.919662,-0.308964,0.242409,0.329852,0.942715,-0.0498631,-0.213117,0.125816,0.968892,1.59133e-10,2.11107e-10,6.2583,0.129133,0.214764,0.344374
0.64,-1.33375,0.787395,6.06361,0.109442,0.380338,0.500981,0.129133,0.214764,0.344374,-4.61909e-10,2.31696e-10,-9144.34,9144.28,303.172,0.458303,0.0209652,1.79052,0.128298,6.35608,0.991377,0.976357,0.939385,0.131044,0.216165,0.342864,0.2214,0.917175,-0.313298,0.246242,0.334758,0.940997,-0.0496247,-0.216165,0.127946,0.967937,1.59667e-10,2.1461e-10,6.35608,0.131422,0.217885,0.349964
0.65,-1.37397,0.813235,6.15229,0.108387,0.380525,0.500653,0.131422,0.217885,0.349964,-4.69025e-10,2.35311e-10,-9144.28,9144.21,303.173,0.458307,0.0212878,1.79372,0.130449,6.45387,0.991073,0.975679,0.937451,0.133321,0.219202,0.348118,0.224666,0.914651,-0.317614,0.250068,0.339652,0.939255,-0.0493553,-0.219202,0.130079,0.966969,1.60186e-10,2.18114e-10,6.45387,0.13372,0.220997,0.355563
0.66,-1.4147,0.839512,6.24069,0.107332,0.380703,0.500326,0.13372,0.220997,0.355563,-4.7613e-10,2.38924e-10,-9144.21,9144.15,303.173,0.45831,0.0216103,1.79691,0.132603,6.55165,0.990763,0.974995,0.935484,0.135606,0.222226,0.353368,0.227926,0.912093,-0.321913,0.253888,0.344532,0.937492,-0.0490549,-0.222226,0.132215,0.965989,1.60688e-10,2.21621e-10,6.55165,0.136025,0.224097,0.361169
0.67,-1.45595,0.866228,6.32882,0.106277,0.380872,0.500001,0.136025,0.224097,0.361169,-4.83224e-10,2.42535e-10,-9144.15,9144.08,303.173,0.458314,0.0219328,1.8001,0.134762,6.64944,0.990446,0.974304,0.933485,0.137898,0.225238,0.358615,0.231179,0.909498,-0.326195,0.2577,0.3494,0.935706,-0.0487235,-0.225238,0.134354,0.964996,1.61175e-10,2.25129e-10,6.64944,0.138339,0.227187,0.366784
0.68,-1.49771,0.893382,6.41668,0.105222,0.381031,0.499677,0.138339,0.227187,0.366784,-4.90306e-10,2.46144e-10,-9144.08,9144.01,303.173,0.458318,0.0222553,1.80328,0.136924,6.74723,0.990124,0.973605,0.931454,0.140197,0.228237,0.363859,0.234425,0.906869,-0.33046,0.261505,0.354255,0.933898,-0.0483614,-0.228237,0.136497,0.96399,1.61646e-10,2.28639e-10,6.74723,0.140661,0.230267,0.372407
0.69,-1.53997,0.920975,6.50426,0.104167,0.381181,0.499354,0.140661,0.230267,0.372407,-4.97375e-10,2.4975e-10,-9144.01,9143.95,303.174,0.458321,0.0225778,1.80645,0.13909,6.84501,0.989794,0.972901,0.92939,0.142504,0.231224,0.369098,0.237665,0.904204,-0.334707,0.265302,0.359096,0.932067,-0.0479685,-0.231224,0.138642,0.962971,1.621e-10,2.3215e-10,6.84501,0.142991,0.233336,0.378038
0.7,-1.58273,0.949007,6.59155,0.103112,0.381322,0.499032,0.142991,0.233336,0.378038,-5.04432e-10,2.53355e-10,-9143.95,9143.88,303.174,0.458325,0.0229004,1.80961,0.14126,6.9428,0.989458,0.972189,0.927294,0.144818,0.234198,0.374334,0.240897,0.901505,-0.338937,0.269091,0.363923,0.930215,-0.0475449,-0.234198,0.14079,0.96194,1.62539e-10,2.35663e-10,6.9428,0.145329,0.236393,0.383678
0.71,-1.62599,0.977479,6.67856,0.102056,0.381454,0.498711,0.145329,0.236393,0.383678,-5.11476e-10,2.56958e-10,-9143.88,9143.81,303.174,0.458329,0.0232229,1.81277,0.143433,7.04058,0.989116,0.971471,0.925165,0.147139,0.237158,0.379565,0.244123,0.898771,-0.34315,0.272871,0.368737,0.92834,-0.0470908,-0.237158,0.142942,0.960897,1.6296e-10,2.39176e-10,7.04058,0.147675,0.23944,0.389326
0.72,-1.66973,1.00639,6.76528,0.101001,0.381577,0.498391,0.147675,0.23944,0.389326,-5.18506e-10,2.60558e-10,-9143.81,9143.74,303.175,0.458333,0.0235454,1.81592,0.145609,7.13837,0.988767,0.970747,0.923003,0.149468,0.240106,0.384792,0.247342,0.896002,-0.347345,0.276643,0.373536,0.926444,-0.0466062,-0.240106,0.145095,0.959842,1.63366e-10,2.42689e-10,7.13837,0.15003,0.242475,0.394983
0.73,-1.71396,1.03574,6.85171,0.0999459,0.38169,0.498073,0.15003,0.242475,0.394983,-5.25522e-10,2.64157e-10,-9143.74,9143.66,303.175,0.458337,0.0238679,1.81906,0.147789,7.23615,0.988411,0.970016,0.920808,0.151804,0.24304,0.390015,0.250553,0.893199,-0.351522,0.280406,0.378321,0.924526,-0.0460912,-0.24304,0.147252,0.958774,1.63755e-10,2.46203e-10,7.23615,0.152393,0.245499,0.400648
0.74,-1.75868,1.06554,6.93784,0.098891,0.381794,0.497755,0.152393,0.245499,0.400648,-5.32524e-10,2.67753e-10,-9143.66,9143.59,303.175,0.458341,0.0241904,1.82219,0.149973,7.33394,0.988048,0.96928,0.918581,0.154147,0.245961,0.395233,0.253757,0.890362,-0.355682,0.284159,0.383092,0.922587,-0.045546,-0.245961,0.149411,0.957695,1.64126e-10,2.49716e-10,7.33394,0.154764,0.248511,0.406322
0.75,-1.80386,1.09577,7.02368,0.0978362,0.381889,0.497439,0.154764,0.248511,0.406322,-5.39511e-10,2.71348e-10,-9143.59,9143.52,303.176,0.458345,0.0245129,1.82531,0.152159,7.43173,0.987678,0.968537,0.91632,0.156497,0.248868,0.400446,0.256953,0.88749,-0.359824,0.287902,0.387847,0.920626,-0.0449705,-0.248868,0.151573,0.956603,1.64483e-10,2.5323e-10,7.43173,0.157143,0.251512,0.412004
0.76,-1.84952,1.12645,7.10922,0.0967816,0.381975,0.497124,0.157143,0.251512,0.412004,-5.46483e-10,2.74941e-10,-9143.52,9143.44,303.176,0.458349,0.0248355,1.82843,0.154349,7.52951,0.987302,0.967789,0.914026,0.158854,0.251762,0.405655,0.260141,0.884585,-0.363949,0.291635,0.392588,0.918644,-0.044365,-0.251762,0.153737,0.9555,1.64821e-10,2.56743e-10,7.52951,0.15953,0.254501,0.417695
0.77,-1.89565,1.15757,7.19445,0.0957273,0.382052,0.496811,0.15953,0.254501,0.417695,-5.5344e-10,2.78532e-10,-9143.44,9143.37,303.176,0.458353,0.025158,1.83153,0.156542,7.6273,0.986919,0.967035,0.911699,0.161218,0.254642,0.410858,0.263322,0.881646,-0.368055,0.295358,0.397314,0.91664,-0.0437296,-0.254642,0.155904,0.954385,1.65143e-10,2.60254e-10,7.6273,0.161925,0.257477,0.423395
0.78,-1.94223,1.18912,7.27938,0.0946732,0.38212,0.496498,0.161925,0.257477,0.423395,-5.60381e-10,2.82121e-10,-9143.37,9143.29,303.177,0.458358,0.0254805,1.83463,0.158739,7.72508,0.986528,0.966276,0.909339,0.16359,0.257508,0.416056,0.266495,0.878673,-0.372144,0.29907,0.402025,0.914616,-0.0430643,-0.257508,0.158073,0.953259,1.65448e-10,2.63764e-10,7.72508,0.164328,0.260442,0.429103
0.79,-1.98927,1.22113,7.36401,0.0936195,0.382178,0.496187,0.164328,0.260442,0.429103,-5.67306e-10,2.85709e-10,-9143.29,9143.21,303.177,0.458362,0.025803,1.83772,0.160938,7.82287,0.986131,0.965512,0.906946,0.165968,0.260359,0.421248,0.269659,0.875667,-0.376215,0.302771,0.40672,0.91257,-0.0423692,-0.260359,0.160244,0.952121,1.65737e-10,2.67273e-10,7.82287,0.16674,0.263394,0.434821
0.8,-2.03676,1.25357,7.44832,0.0925662,0.382228,0.495877,0.16674,0.263394,0.434821,-5.74214e-10,2.89295e-10,-9143.21,9143.13,303.177,0.458366,0.0261255,1.8408,0.16314,7.92066,0.985727,0.964742,0.904519,0.168353,0.263197,0.426434,0.272816,0.872627,-0.380268,0.30646,0.411399,0.910504,-0.0416446,-0.263197,0.162418,0.950972,1.66008e-10,2.7078e-10,7.92066,0.169159,0.266334,0.440547
0.81,-2.08469,1.28645,7.53232,0.0915133,0.382268,0.495568,0.169159,0.266334,0.440547,-5.81105e-10,2.92879e-10,-9143.13,9143.05,303.178,0.458371,0.026448,1.84388,0.165346,8.01844,0.985315,0.963967,0.902058,0.170746,0.26602,0.431614,0.275964,0.869555,-0.384303,0.310138,0.416062,0.908416,-0.0408904,-0.26602,0.164593,0.949812,1.66262e-10,2.74286e-10,8.01844,0.171586,0.269262,0.446282
0.82,-2.13307,1.31978,7.61601,0.0904609,0.382299,0.495261,0.171586,0.269262,0.446282,-5.87979e-10,2.96462e-10,-9143.05,9142.97,303.178,0.458375,0.0267705,1.84694,0.167554,8.11623,0.984896,0.963188,0.899564,0.173145,0.268829,0.436789,0.279103,0.866449,-0.38832,0.313804,0.42071,0.906308,-0.0401069,-0.268829,0.166771,0.94864,1.66499e-10,2.77788e-10,8.11623,0.174022,0.272177,0.452026
0.83,-2.18188,1.35355,7.69938,0.089409,0.382321,0.494954,0.174022,0.272177,0.452026,-5.94835e-10,3.00044e-10,-9142.97,9142.89,303.178,0.45838,0.027093,1.84999,0.169765,8.21401,0.98447,0.962404,0.897037,0.175551,0.271623,0.441956,0.282234,0.863311,-0.392319,0.317458,0.425341,0.90418,-0.0392942,-0.271623,0.168951,0.947458,1.6672e-10,2.81288e-10,8.21401,0.176465,0.275079,0.457778
0.84,-2.23111,1.38776,7.78243,0.0883576,0.382335,0.494649,0.176465,0.275079,0.457778,-6.01673e-10,3.03624e-10,-9142.89,9142.81,303.179,0.458384,0.0274155,1.85304,0.171979,8.3118,0.984037,0.961615,0.894475,0.177964,0.274402,0.447118,0.285356,0.860141,-0.3963,0.321099,0.429955,0.902031,-0.0384523,-0.274402,0.171132,0.946265,1.66923e-10,2.84785e-10,8.3118,0.178917,0.277968,0.46354
0.85,-2.28078,1.42242,7.86516,0.0873068,0.382339,0.494345,0.178917,0.277968,0.46354,-6.08493e-10,3.07204e-10,-9142.81,9142.73,303.179,0.458389,0.027738,1.85608,0.174196,8.40959,0.983596,0.960822,0.89188,0.180383,0.277167,0.452272,0.288468,0.856938,-0.400263,0.324727,0.434553,0.899862,-0.0375815,-0.277167,0.173316,0.945061,1.67109e-10,2.88278e-10,8.40959,0.181376,0.280844,0.469311
0.86,-2.33086,1.45752,7.94757,0.0862566,0.382334,0.494043,0.181376,0.280844,0.469311,-6.15294e-10,3.10782e-10,-9142.73,9142.64,303.179,0.458394,0.0280605,1.8591,0.176415,8.50737,0.983148,0.960024,0.889251,0.182809,0.279916,0.457419,0.291572,0.853703,-0.404207,0.328342,0.439134,0.897673,-0.0366819,-0.279916,0.175501,0.943846,1.67278e-10,2.91768e-10,8.50737,0.183843,0.283707,0.475091
0.87,-2.38135,1.49306,8.02965,0.0852071,0.38232,0.493742,0.183843,0.283707,0.475091,-6.22075e-10,3.14359e-10,-9142.64,9142.56,303.18,0.458398,0.028383,1.86212,0.178637,8.60516,0.982693,0.959223,0.886588,0.185242,0.282651,0.462559,0.294666,0.850436,-0.408133,0.331943,0.443698,0.895463,-0.0357536,-0.282651,0.177689,0.942622,1.67429e-10,2.95253e-10,8.60516,0.186318,0.286556,0.48088
0.88,-2.43225,1.52904,8.11141,0.0841583,0.382297,0.493442,0.186318,0.286556,0.48088,-6.28837e-10,3.17936e-10,-9142.56,9142.47,303.18,0.458403,0.0287055,1.86513,0.180862,8.70294,0.98223,0.958417,0.883891,0.187682,0.28537,0.467692,0.297751,0.847137,-0.412041,0.335531,0.448244,0.893234,-0.0347967,-0.28537,0.179877,0.941386,1.67564e-10,2.98735e-10,8.70294,0.188801,0.289392,0.486678
0.89,-2.48356,1.56546,8.19283,0.0831102,0.382266,0.493143,0.188801,0.289392,0.486678,-6.35579e-10,3.21512e-10,-9142.47,9142.38,303.18,0.458408,0.029028,1.86813,0.183089,8.80073,0.981759,0.957608,0.881161,0.190128,0.288074,0.472817,0.300826,0.843807,-0.415931,0.339105,0.452773,0.890984,-0.0338114,-0.288074,0.182068,0.940141,1.67682e-10,3.02211e-10,8.80073,0.191292,0.292215,0.492485
0.9,-2.53526,1.60233,8.27393,0.0820629,0.382225,0.492846,0.191292,0.292215,0.492485,-6.423e-10,3.25087e-10,-9142.38,9142.29,303.181,0.458413,0.0293505,1.87112,0.185319,8.89852,0.981281,0.956795,0.878396,0.19258,0.290762,0.477934,0.303892,0.840445,-0.419802,0.342664,0.457285,0.888715,-0.0327978,-0.290762,0.18426,0.938885,1.67784e-10,3.05683e-10,8.89852,0.193791,0.295023,0.498301
0.91,-2.58735,1.63964,8.35469,0.0810164,0.382175,0.492549,0.193791,0.295023,0.498301,-6.49001e-10,3.28663e-10,-9142.29,9142.2,303.181,0.458418,0.029673,1.8741,0.187551,8.9963,0.980795,0.955979,0.875597,0.195039,0.293435,0.483043,0.306947,0.837052,-0.423655,0.346209,0.461779,0.886426,-0.0317562,-0.293435,0.186453,0.93762,1.67868e-10,3.09149e-10,8.9963,0.196297,0.297818,0.504126
0.92,-2.63983,1.67739,8.43511,0.0799707,0.382117,0.492254,0.196297,0.297818,0.504126,-6.55681e-10,3.32237e-10,-9142.2,9142.11,303.182,0.458423,0.0299955,1.87707,0.189786,9.09409,0.980302,0.955159,0.872764,0.197505,0.296092,0.488143,0.309992,0.833628,-0.427489,0.349739,0.466255,0.884118,-0.0306866,-0.296092,0.188648,0.936345,1.67935e-10,3.12609e-10,9.09409,0.198812,0.300599,0.509961
0.93,-2.69269,1.71558,8.5152,0.078926,0.38205,0.491961,0.198812,0.300599,0.509961,-6.62339e-10,3.35812e-10,-9142.11,9142.02,303.182,0.458428,0.030318,1.88003,0.192023,9.19187,0.979801,0.954337,0.869896,0.199976,0.298733,0.493235,0.313027,0.830174,-0.431305,0.353253,0.470712,0.881791,-0.0295892,-0.298733,0.190845,0.93506,1.67986e-10,3.16063e-10,9.19187,0.201334,0.303365,0.515805
0.94,-2.74592,1.75422,8.59495,0.0778822,0.381974,0.491669,0.201334,0.303365,0.515805,-6.68976e-10,3.39387e-10,-9142.02,9141.93,303.182,0.458433,0.0306405,1.88298,0.194262,9.28966,0.979292,0.953511,0.866994,0.202454,0.301359,0.498318,0.316052,0.826689,-0.435102,0.356752,0.475152,0.879443,-0.0284641,-0.301359,0.193042,0.933765,1.6802e-10,3.1951e-10,9.28966,0.203864,0.306117,0.521658
0.95,-2.79952,1.7933,8.67436,0.0768393,0.381889,0.491378,0.203864,0.306117,0.521658,-6.7559e-10,3.42963e-10,-9141.93,9141.84,303.183,0.458438,0.030963,1.88592,0.196504,9.38745,0.978775,0.952682,0.864058,0.204939,0.303968,0.503392,0.319066,0.823173,-0.438881,0.360236,0.479572,0.877077,-0.0273116,-0.303968,0.195241,0.932461,1.68038e-10,3.22952e-10,9.38745,0.206401,0.308855,0.52752
0.96,-2.85348,1.83282,8.75343,0.0757975,0.381795,0.491088,0.206401,0.308855,0.52752,-6.82182e-10,3.46539e-10,-9141.84,9141.74,303.183,0.458443,0.0312855,1.88885,0.198747,9.48523,0.97825,0.951851,0.861088,0.207429,0.306561,0.508456,0.322069,0.819627,-0.442641,0.363703,0.483974,0.874692,-0.0261318,-0.306561,0.197441,0.931148,1.68039e-10,3.26386e-10,9.48523,0.208946,0.311578,0.533391
0.97,-2.9078,1.87278,8.83216,0.0747567,0.381692,0.490799,0.208946,0.311578,0.533391,-6.88752e-10,3.50115e-10,-9141.74,9141.65,303.184,0.458449,0.031608,1.89177,0.200993,9.58302,0.977717,0.951017,0.858083,0.209925,0.309138,0.513511,0.325061,0.816052,-0.446382,0.367154,0.488358,0.872288,-0.0249249,-0.309138,0.199643,0.929826,1.68024e-10,3.29812e-10,9.58302,0.211499,0.314287,0.539271
0.98,-2.96248,1.91318,8.91054,0.073717,0.381581,0.490512,0.211499,0.314287,0.539271,-6.95298e-10,3.53693e-10,-9141.65,9141.55,303.184,0.458454,0.0319305,1.89468,0.203241,9.6808,0.977177,0.950181,0.855044,0.212428,0.311699,0.518556,0.328041,0.812446,-0.450105,0.370589,0.492722,0.869864,-0.023691,-0.311699,0.201845,0.928495,1.67992e-10,3.3323e-10,9.6808,0.214059,0.31698,0.545161
0.99,-3.01749,1.95402,8.98858,0.0726785,0.381461,0.490227,0.214059,0.31698,0.545161,-7.0182e-10,3.57272e-10,-9141.55,9141.45,303.184,0.458459,0.0322529,1.89758,0.205492,9.77859,0.976628,0.949343,0.85197,0.214936,0.314243,0.523591,0.331011,0.808811,-0.453809,0.374007,0.497067,0.867422,-0.0224303,-0.314243,0.204048,0.927155,1.67944e-10,3.3664e-10,9.77859,0.216627,0.319659,0.55106
1,-3.07285,1.99531,9.06626,0.0716411,0.381332,0.489942,0.216627,0.319659,0.55106,-7.08319e-10,3.60852e-10,-9141.45,9141.35,303.185,0.458465,0.0325754,1.90047,0.207744,9.87638,0.976071,0.948502,0.848862,0.217451,0.31677,0.528615,0.333969,0.805147,-0.457495,0.377408,0.501393,0.864961,-0.021143,-0.31677,0.206253,0.925806,1.67881e-10,3.40041e-10,9.87638,0.219202,0.322323,0.556968
1.01,-3.12854,2.03703,9.14361,0.0706048,0.381195,0.489659,0.219202,0.322323,0.556968,-7.14794e-10,3.64433e-10,-9141.35,9141.25,303.185,0.45847,0.0328979,1.90334,0.209998,9.97416,0.975506,0.94766,0.845719,0.219971,0.319281,0.533629,0.336915,0.801454,-0.461161,0.380791,0.505699,0.862482,-0.0198292,-0.319281,0.208458,0.924448,1.678e-10,3.43433e-10,9.97416,0.221785,0.324971,0.562886
1.02,-3.18456,2.07919,9.2206,0.0695699,0.381049,0.489377,0.221785,0.324971,0.562886,-7.21244e-10,3.68017e-10,-9141.25,9141.15,303.186,0.458476,0.0332204,1.90621,0.212254,10.0719,0.974933,0.946816,0.842541,0.222497,0.321775,0.538632,0.33985,0.797732,-0.464809,0.384157,0.509985,0.859984,-0.0184891,-0.321775,0.210664,0.923083,1.67705e-10,3.46815e-10,10.0719,0.224375,0.327604,0.568812
1.03,-3.2409,2.1218,9.29724,0.0685362,0.380894,0.489096,0.224375,0.327604,0.568812,-7.2767e-10,3.71602e-10,-9141.15,9141.05,303.186,0.458482,0.0335429,1.90907,0.214512,10.1697,0.974352,0.945971,0.839329,0.225029,0.324252,0.543624,0.342772,0.793981,-0.468438,0.387505,0.514252,0.857468,-0.017123,-0.324252,0.212871,0.921708,1.67595e-10,3.50188e-10,10.1697,0.226973,0.330221,0.574748
1.04,-3.29756,2.16484,9.37353,0.0675038,0.380731,0.488817,0.226973,0.330221,0.574748,-7.3407e-10,3.7519e-10,-9141.05,9140.95,303.187,0.458487,0.0338653,1.91192,0.216772,10.2675,0.973763,0.945124,0.836082,0.227566,0.326713,0.548604,0.345682,0.790201,-0.472048,0.390835,0.518499,0.854934,-0.015731,-0.326713,0.215078,0.920326,1.6747e-10,3.53551e-10,10.2675,0.229578,0.332823,0.580694
1.05,-3.35453,2.20832,9.44947,0.0664727,0.380559,0.488539,0.229578,0.332823,0.580694,-7.40445e-10,3.7878e-10,-9140.95,9140.85,303.187,0.458493,0.0341878,1.91475,0.219034,10.3653,0.973165,0.944276,0.832801,0.230109,0.329156,0.553572,0.34858,0.786394,-0.475639,0.394147,0.522725,0.852381,-0.0143133,-0.329156,0.217286,0.918936,1.67328e-10,3.56903e-10,10.3653,0.23219,0.335409,0.586648
1.06,-3.4118,2.25224,9.52505,0.065443,0.380378,0.488262,0.23219,0.335409,0.586648,-7.46794e-10,3.82373e-10,-9140.85,9140.74,303.188,0.458499,0.0345103,1.91757,0.221297,10.4631,0.972559,0.943427,0.829485,0.232658,0.331582,0.558529,0.351465,0.782558,-0.479212,0.39744,0.526931,0.849811,-0.0128701,-0.331582,0.219495,0.917538,1.67173e-10,3.60244e-10,10.4631,0.234809,0.337979,0.592611
1.07,-3.46937,2.2966,9.60028,0.0644148,0.380189,0.487987,0.234809,0.337979,0.592611,-7.53118e-10,3.85969e-10,-9140.74,9140.64,303.188,0.458505,0.0348328,1.92039,0.223562,10.5609,0.971944,0.942577,0.826134,0.235211,0.33399,0.563473,0.354337,0.778695,-0.482765,0.400715,0.531117,0.847222,-0.0114015,-0.33399,0.221705,0.916132,1.67002e-10,3.63575e-10,10.5609,0.237436,0.340534,0.598584
1.08,-3.52723,2.3414,9.67516,0.063388,0.379991,0.487713,0.237436,0.340534,0.598584,-7.59414e-10,3.89568e-10,-9140.64,9140.53,303.188,0.45851,0.0351552,1.92319,0.225829,10.6587,0.971321,0.941726,0.822749,0.23777,0.336381,0.568405,0.357197,0.774804,-0.486299,0.40397,0.535282,0.844615,-0.00990782,-0.336381,0.223915,0.914718,1.66817e-10,3.66892e-10,10.6587,0.24007,0.343072,0.604566
1.09,-3.58538,2.38663,9.74968,0.0623627,0.379785,0.48744,0.24007,0.343072,0.604566,-7.65685e-10,3.93171e-10,-9140.53,9140.43,303.189,0.458516,0.0354777,1.92598,0.228098,10.7564,0.97069,0.940875,0.819329,0.240335,0.338755,0.573324,0.360043,0.770886,-0.489815,0.407206,0.539426,0.841991,-0.00838919,-0.338755,0.226125,0.913298,1.66619e-10,3.70199e-10,10.7564,0.242711,0.345594,0.610557
1.1,-3.6438,2.4323,9.82384,0.0613389,0.379571,0.487168,0.242711,0.345594,0.610557,-7.71928e-10,3.96779e-10,-9140.43,9140.32,303.189,0.458522,0.0358002,1.92876,0.230368,10.8542,0.97005,0.940023,0.815874,0.242904,0.341111,0.57823,0.362876,0.76694,-0.493311,0.410423,0.543549,0.839349,-0.00684582,-0.341111,0.228336,0.911869,1.66406e-10,3.73492e-10,10.8542,0.245359,0.348099,0.616557
1.11,-3.7025,2.47841,9.89765,0.0603167,0.379348,0.486898,0.245359,0.348099,0.616557,-7.78145e-10,4.0039e-10,-9140.32,9140.21,303.19,0.458528,0.0361227,1.93153,0.232639,10.952,0.969402,0.939171,0.812385,0.245479,0.34345,0.583122,0.365695,0.762968,-0.496788,0.41362,0.547651,0.83669,-0.0052779,-0.34345,0.230547,0.910434,1.6618e-10,3.76773e-10,10.952,0.248014,0.350588,0.622567
1.12,-3.76147,2.52495,9.9711,0.0592961,0.379117,0.486629,0.248014,0.350588,0.622567,-7.84334e-10,4.04006e-10,-9140.21,9140.1,303.19,0.458534,0.0364451,1.93428,0.234912,11.0498,0.968745,0.938319,0.80886,0.248058,0.345771,0.588001,0.3685,0.758969,-0.500246,0.416797,0.551732,0.834013,-0.00368566,-0.345771,0.232758,0.908992,1.65941e-10,3.8004e-10,11.0498,0.250675,0.35306,0.628585
1.13,-3.8207,2.57193,10.0442,0.0582771,0.378877,0.486361,0.250675,0.35306,0.628585,-7.90495e-10,4.07626e-10,-9140.1,9139.99,303.191,0.458541,0.0367676,1.93703,0.237187,11.1476,0.96808,0.937467,0.805302,0.250643,0.348074,0.592865,0.371292,0.754944,-0.503685,0.419954,0.555792,0.831319,-0.00206928,-0.348074,0.234969,0.907543,1.65688e-10,3.83294e-10,11.1476,0.253344,0.355516,0.634612
1.14,-3.88018,2.61934,10.1169,0.0572598,0.378629,0.486095,0.253344,0.355516,0.634612,-7.96629e-10,4.11252e-10,-9139.99,9139.88,303.191,0.458547,0.0370901,1.93976,0.239463,11.2454,0.967406,0.936616,0.801708,0.253232,0.350359,0.597716,0.374069,0.750892,-0.507104,0.423091,0.55983,0.828607,-0.000428975,-0.350359,0.237181,0.906087,1.65423e-10,3.86533e-10,11.2454,0.25602,0.357954,0.640649
1.15,-3.93992,2.66719,10.1893,0.0562442,0.378372,0.48583,0.25602,0.357954,0.640649,-8.02734e-10,4.14884e-10,-9139.88,9139.76,303.192,0.458553,0.0374125,1.94248,0.241741,11.3432,0.966723,0.935764,0.79808,0.255826,0.352626,0.602552,0.376832,0.746815,-0.510505,0.426207,0.563846,0.825879,0.00123505,-0.352626,0.239393,0.904625,1.65145e-10,3.89759e-10,11.3432,0.258702,0.360376,0.646694
1.16,-3.99989,2.71547,10.2613,0.0552303,0.378108,0.485566,0.258702,0.360376,0.646694,-8.08811e-10,4.18521e-10,-9139.76,9139.65,303.192,0.458559,0.037735,1.94519,0.244019,11.441,0.966031,0.934914,0.794417,0.258425,0.354875,0.607372,0.37958,0.742712,-0.513886,0.429302,0.567841,0.823133,0.00292257,-0.354875,0.241605,0.903156,1.64856e-10,3.92969e-10,11.441,0.261391,0.36278,0.652749
1.17,-4.06011,2.76419,10.333,0.0542182,0.377835,0.485303,0.261391,0.36278,0.652749,-8.14859e-10,4.22165e-10,-9139.65,9139.53,303.193,0.458566,0.0380574,1.94789,0.246299,11.5387,0.965331,0.934064,0.79072,0.261028,0.357106,0.612178,0.382314,0.738583,-0.517248,0.432377,0.571814,0.820371,0.0046334,-0.357106,0.243817,0.901681,1.64555e-10,3.96164e-10,11.5387,0.264087,0.365167,0.658812
1.18,-4.12055,2.81334,10.4043,0.0532079,0.377553,0.485042,0.264087,0.365167,0.658812,-8.20879e-10,4.25815e-10,-9139.53,9139.42,303.193,0.458572,0.0383799,1.95057,0.248581,11.6365,0.964622,0.933215,0.786988,0.263635,0.359318,0.616968,0.385033,0.734429,-0.520591,0.43543,0.575764,0.817591,0.0063673,-0.359318,0.246029,0.9002,1.64241e-10,3.99344e-10,11.6365,0.266789,0.367537,0.664885
1.19,-4.18122,2.86292,10.4752,0.0521995,0.377264,0.484782,0.266789,0.367537,0.664885,-8.26869e-10,4.29472e-10,-9139.42,9139.3,303.194,0.458579,0.0387023,1.95325,0.250863,11.7343,0.963905,0.932367,0.783222,0.266247,0.361513,0.621743,0.387736,0.73025,-0.523914,0.438462,0.579693,0.814795,0.00812407,-0.361513,0.24824,0.898713,1.6392e-10,4.02508e-10,11.7343,0.269498,0.36989,0.670966
1.2,-4.2421,2.91293,10.5458,0.0511929,0.376966,0.484523,0.269498,0.36989,0.670966,-8.3283e-10,4.33137e-10,-9139.3,9139.18,303.194,0.458585,0.0390248,1.95591,0.253147,11.8321,0.963178,0.931521,0.779421,0.268863,0.363688,0.626501,0.390424,0.726046,-0.527218,0.441472,0.583599,0.811982,0.00990349,-0.363688,0.250452,0.89722,1.63586e-10,4.05655e-10,11.8321,0.272213,0.372224,0.677056
1.21,-4.3032,2.96337,10.616,0.0501882,0.376661,0.484265,0.272213,0.372224,0.677056,-8.38762e-10,4.36809e-10,-9139.18,9139.06,303.195,0.458592,0.0393473,1.95855,0.255432,11.9299,0.962443,0.930676,0.775585,0.271484,0.365846,0.631243,0.393097,0.721818,-0.530503,0.44446,0.587482,0.809152,0.0117053,-0.365846,0.252663,0.895722,1.63239e-10,4.08786e-10,11.9299,0.274934,0.374541,0.683155
1.22,-4.3645,3.01424,10.6859,0.0491855,0.376347,0.484009,0.274934,0.374541,0.683155,-8.44663e-10,4.4049e-10,-9139.06,9138.94,303.195,0.458598,0.0396697,1.96119,0.257718,12.0277,0.961699,0.929832,0.771716,0.274108,0.367985,0.635968,0.395754,0.717566,-0.533769,0.447427,0.591343,0.806307,0.0135294,-0.367985,0.254874,0.894218,1.62887e-10,4.119e-10,12.0277,0.277662,0.376841,0.689262
1.23,-4.426,3.06555,10.7554,0.0481848,0.376025,0.483754,0.277662,0.376841,0.689262,-8.50535e-10,4.44179e-10,-9138.94,9138.82,303.196,0.458605,0.0399922,1.96381,0.260005,12.1255,0.960946,0.92899,0.767811,0.276736,0.370105,0.640676,0.398395,0.713289,-0.537014,0.450371,0.595181,0.803444,0.0153754,-0.370105,0.257085,0.892709,1.62524e-10,4.14997e-10,12.1255,0.280396,0.379122,0.695378
1.24,-4.48769,3.11728,10.8245,0.047186,0.375695,0.4835,0.280396,0.379122,0.695378,-8.56377e-10,4.47877e-10,-9138.82,9138.7,303.196,0.458612,0.0403146,1.96642,0.262293,12.2232,0.960184,0.92815,0.763873,0.279368,0.372206,0.645366,0.401019,0.708989,-0.540241,0.453293,0.598997,0.800566,0.0172432,-0.372206,0.259296,0.891195,1.62152e-10,4.18075e-10,12.2232,0.283136,0.381385,0.701503
1.25,-4.54957,3.16944,10.8933,0.0461893,0.375357,0.483247,0.283136,0.381385,0.701503,-8.62189e-10,4.51584e-10,-9138.7,9138.58,303.197,0.458619,0.0406371,1.96902,0.264582,12.321,0.959413,0.927312,0.759901,0.282004,0.374289,0.650039,0.403628,0.704665,-0.543448,0.456192,0.602789,0.797671,0.0191325,-0.374289,0.261506,0.889675,1.61772e-10,4.21137e-10,12.321,0.285882,0.38363,0.707636
1.26,-4.61162,3.22202,10.9617,0.0451947,0.375011,0.482996,0.285882,0.38363,0.707636,-8.6797e-10,4.55301e-10,-9138.58,9138.46,303.197,0.458625,0.0409595,1.97161,0.266872,12.4188,0.958633,0.926476,0.755894,0.284644,0.376353,0.654694,0.40622,0.700318,-0.546636,0.459069,0.606559,0.79476,0.0210432,-0.376353,0.263716,0.888151,1.61385e-10,4.24179e-10,12.4188,0.288635,0.385857,0.713778
1.27,-4.67386,3.27503,11.0298,0.0442022,0.374657,0.482746,0.288635,0.385857,0.713778,-8.73721e-10,4.59029e-10,-9138.46,9138.33,303.198,0.458632,0.0412819,1.97418,0.269163,12.5166,0.957845,0.925643,0.751853,0.287286,0.378398,0.659331,0.408795,0.695947,-0.549804,0.461923,0.610305,0.791833,0.0229749,-0.378398,0.265925,0.886622,1.60989e-10,4.27202e-10,12.5166,0.291393,0.388065,0.719928
1.28,-4.73625,3.32847,11.0975,0.0432119,0.374295,0.482497,0.291393,0.388065,0.719928,-8.79441e-10,4.62767e-10,-9138.33,9138.21,303.198,0.458639,0.0416044,1.97674,0.271455,12.6144,0.957047,0.924812,0.747778,0.289933,0.380424,0.663949,0.411352,0.691554,-0.552952,0.464754,0.614028,0.788891,0.0249274,-0.380424,0.268133,0.885089,1.60587e-10,4.30206e-10,12.6144,0.294157,0.390255,0.726087
1.29,-4.79881,3.38234,11.1649,0.0422237,0.373925,0.482249,0.294157,0.390255,0.726087,-8.85131e-10,4.66516e-10,-9138.21,9138.08,303.199,0.458646,0.0419268,1.97928,0.273748,12.7122,0.95624,0.923984,0.743669,0.292582,0.382431,0.668548,0.413893,0.687139,-0.556081,0.467562,0.617727,0.785932,0.0269006,-0.382431,0.270341,0.883551,1.60178e-10,4.33192e-10,12.7122,0.296926,0.392426,0.732254
1.3,-4.86153,3.43663,11.2319,0.0412377,0.373547,0.482003,0.296926,0.392426,0.732254,-8.90789e-10,4.70277e-10,-9138.08,9137.95,303.2,0.458653,0.0422493,1.98182,0.276041,12.81,0.955425,0.923159,0.739527,0.295235,0.384419,0.673127,0.416417,0.682701,-0.559191,0.470346,0.621403,0.782958,0.0288942,-0.384419,0.272549,0.882009,1.59763e-10,4.36158e-10,12.81,0.299701,0.394578,0.738429
1.31,-4.92439,3.49134,11.2985,0.040254,0.373162,0.481757,0.299701,0.394578,0.738429,-8.96416e-10,4.7405e-10,-9137.95,9137.82,303.2,0.458661,0.0425717,1.98434,0.278335,12.9077,0.9546,0.922337,0.73535,0.297891,0.386387,0.677687,0.418922,0.678241,-0.562281,0.473107,0.625056,0.779968,0.0309079,-0.386387,0.274755,0.880463,1.59344e-10,4.39103e-10,12.9077,0.302482,0.396712,0.744613
1.32,-4.98739,3.54647,11.3648,0.0392725,0.372769,0.481513,0.302482,0.396712,0.744613,-9.02012e-10,4.77835e-10,-9137.82,9137.69,303.201,0.458668,0.0428941,1.98684,0.28063,13.0055,0.953766,0.921517,0.73114,0.300549,0.388337,0.682227,0.42141,0.673759,-0.565351,0.475844,0.628684,0.776963,0.0329415,-0.388337,0.276961,0.878912,1.58919e-10,4.42028e-10,13.0055,0.305268,0.398826,0.750804
1.33,-5.05053,3.60203,11.4307,0.0382933,0.372368,0.48127,0.305268,0.398826,0.750804,-9.07577e-10,4.81633e-10,-9137.69,9137.56,303.201,0.458675,0.0432166,1.98933,0.282926,13.1033,0.952924,0.920702,0.726897,0.30321,0.390267,0.686747,0.42388,0.669255,-0.568401,0.478558,0.632289,0.773942,0.0349948,-0.390267,0.279166,0.877358,1.58491e-10,4.44933e-10,13.1033,0.30806,0.400922,0.757004
1.34,-5.11379,3.658,11.4963,0.0373165,0.371959,0.481029,0.30806,0.400922,0.757004,-9.13111e-10,4.85445e-10,-9137.56,9137.43,303.202,0.458682,0.043539,1.99181,0.285222,13.2011,0.952072,0.919889,0.72262,0.305874,0.392178,0.691246,0.426332,0.66473,-0.571432,0.481247,0.63587,0.770906,0.0370675,-0.392178,0.281371,0.875801,1.58056e-10,4.47818e-10,13.2011,0.310857,0.402998,0.763212
1.35,-5.17718,3.7144,11.5615,0.036342,0.371543,0.480788,0.310857,0.402998,0.763212,-9.18613e-10,4.89271e-10,-9137.43,9137.3,303.202,0.45869,0.0438614,1.99428,0.287519,13.2989,0.951211,0.919081,0.718309,0.308541,0.394069,0.695724,0.428765,0.660184,-0.574443,0.483913,0.639426,0.767855,0.0391594,-0.394069,0.283574,0.87424,1.57621e-10,4.5068e-10,13.2989,0.313659,0.405055,0.769427
1.36,-5.24068,3.77122,11.6264,0.03537,0.371119,0.480549,0.313659,0.405055,0.769427,-9.24084e-10,4.93112e-10,-9137.3,9137.16,303.203,0.458697,0.0441839,1.99673,0.289817,13.3967,0.950341,0.918276,0.713966,0.31121,0.395941,0.70018,0.431179,0.655618,-0.577435,0.486554,0.642959,0.764788,0.0412703,-0.395941,0.285776,0.872675,1.57182e-10,4.53521e-10,13.3967,0.316466,0.407093,0.77565
1.37,-5.3043,3.82845,11.6909,0.0344003,0.370687,0.48031,0.316466,0.407093,0.77565,-9.29523e-10,4.96967e-10,-9137.16,9137.03,303.204,0.458704,0.0445063,1.99917,0.292115,13.4945,0.949462,0.917475,0.709589,0.313881,0.397794,0.704616,0.433575,0.65103,-0.580407,0.48917,0.646467,0.761707,0.0433999,-0.397794,0.287978,0.871108,1.5674e-10,4.5634e-10,13.4945,0.319278,0.409111,0.781881
1.38,-5.36801,3.88611,11.7551,0.0334331,0.370248,0.480073,0.319278,0.409111,0.781881,-9.3493e-10,5.00838e-10,-9137.03,9136.89,303.204,0.458712,0.0448287,2.00159,0.294413,13.5922,0.948574,0.916678,0.70518,0.316554,0.399627,0.709029,0.435951,0.646423,-0.583359,0.491763,0.649951,0.75861,0.045548,-0.399627,0.290178,0.869537,1.56299e-10,4.59138e-10,13.5922,0.322095,0.41111,0.78812
1.39,-5.43183,3.94417,11.819,0.0324684,0.369801,0.479837,0.322095,0.41111,0.78812,-9.40306e-10,5.04725e-10,-9136.89,9136.76,303.205,0.45872,0.0451511,2.004,0.296712,13.69,0.947677,0.915885,0.700737,0.31923,0.40144,0.713419,0.438309,0.641795,-0.586291,0.49433,0.65341,0.755499,0.0477143,-0.40144,0.292378,0.867964,1.55856e-10,4.61913e-10,13.69,0.324916,0.413089,0.794366
1.4,-5.49573,4.00266,11.8825,0.0315063,0.369347,0.479602,0.324916,0.413089,0.794366,-9.45651e-10,5.08628e-10,-9136.76,9136.62,303.205,0.458727,0.0454735,2.0064,0.299012,13.7878,0.946771,0.915097,0.696262,0.321907,0.403234,0.717787,0.440646,0.637147,-0.589203,0.496873,0.656845,0.752373,0.0498985,-0.403234,0.294576,0.866388,1.55412e-10,4.64665e-10,13.7878,0.327743,0.415048,0.800619
1.41,-5.55972,4.06156,11.9456,0.0305466,0.368885,0.479369,0.327743,0.415048,0.800619,-9.50963e-10,5.12549e-10,-9136.62,9136.48,303.206,0.458735,0.045796,2.00878,0.301312,13.8856,0.945856,0.914313,0.691755,0.324586,0.405008,0.722133,0.442964,0.63248,-0.592096,0.499391,0.660255,0.749232,0.0521005,-0.405008,0.296773,0.864809,1.54968e-10,4.67396e-10,13.8856,0.330574,0.416988,0.80688
1.42,-5.62378,4.12087,12.0084,0.0295896,0.368416,0.479136,0.330574,0.416988,0.80688,-9.56244e-10,5.16487e-10,-9136.48,9136.34,303.206,0.458743,0.0461184,2.01115,0.303612,13.9834,0.944932,0.913534,0.687215,0.327266,0.406762,0.726454,0.445262,0.627794,-0.594969,0.501884,0.663641,0.746076,0.05432,-0.406762,0.298969,0.863228,1.54526e-10,4.70104e-10,13.9834,0.333409,0.418907,0.813148
1.43,-5.68792,4.1806,12.0709,0.0286351,0.367939,0.478904,0.333409,0.418907,0.813148,-9.61493e-10,5.20443e-10,-9136.34,9136.2,303.207,0.45875,0.0464408,2.0135,0.305912,14.0812,0.943999,0.91276,0.682642,0.329948,0.408497,0.730753,0.44754,0.623089,-0.597821,0.504351,0.667002,0.742907,0.0565568,-0.408497,0.301163,0.861644,1.54085e-10,4.72789e-10,14.0812,0.336248,0.420807,0.819424
1.44,-5.75211,4.24073,12.133,0.0276833,0.367455,0.478674,0.336248,0.420807,0.819424,-9.66711e-10,5.24418e-10,-9136.2,9136.06,303.208,0.458758,0.0467632,2.01584,0.308213,14.179,0.943057,0.91199,0.678038,0.332631,0.410211,0.735027,0.449798,0.618364,-0.600654,0.506794,0.670337,0.739722,0.0588105,-0.410211,0.303356,0.860059,1.53644e-10,4.75451e-10,14.179,0.339092,0.422686,0.825706
1.45,-5.81637,4.30128,12.1947,0.0267342,0.366964,0.478445,0.339092,0.422686,0.825706,-9.71897e-10,5.28413e-10,-9136.06,9135.92,303.208,0.458766,0.0470856,2.01816,0.310514,14.2767,0.942106,0.911226,0.673402,0.335316,0.411906,0.739277,0.452035,0.613622,-0.603468,0.509211,0.673648,0.736524,0.0610809,-0.411906,0.305548,0.858472,1.5321e-10,4.7809e-10,14.2767,0.34194,0.424545,0.831995
1.46,-5.88068,4.36224,12.2562,0.0257877,0.366465,0.478216,0.34194,0.424545,0.831995,-9.77052e-10,5.32427e-10,-9135.92,9135.78,303.209,0.458774,0.047408,2.02047,0.312816,14.3745,0.941146,0.910467,0.668734,0.338001,0.413581,0.743502,0.454251,0.60886,-0.606261,0.511602,0.676934,0.733311,0.0633679,-0.413581,0.307739,0.856882,1.52775e-10,4.80705e-10,14.3745,0.344792,0.426384,0.838292
1.47,-5.94503,4.4236,12.3173,0.024844,0.365959,0.477989,0.344792,0.426384,0.838292,-9.82175e-10,5.36461e-10,-9135.78,9135.63,303.21,0.458782,0.0477304,2.02277,0.315117,14.4723,0.940177,0.909714,0.664035,0.340687,0.415236,0.747702,0.456447,0.604081,-0.609034,0.513968,0.680195,0.730084,0.0656711,-0.415236,0.309928,0.855292,1.52347e-10,4.83298e-10,14.4723,0.347648,0.428202,0.844594
1.48,-6.00943,4.48538,12.3781,0.023903,0.365446,0.477763,0.347648,0.428202,0.844594,-9.87266e-10,5.40516e-10,-9135.63,9135.49,303.21,0.45879,0.0480528,2.02505,0.317419,14.5701,0.939199,0.908966,0.659304,0.343374,0.416871,0.751877,0.458621,0.599285,-0.611787,0.516309,0.68343,0.726843,0.0679903,-0.416871,0.312115,0.853699,1.51924e-10,4.85867e-10,14.5701,0.350507,0.43,0.850904
1.49,-6.07385,4.54755,12.4385,0.0229648,0.364926,0.477538,0.350507,0.43,0.850904,-9.92327e-10,5.44593e-10,-9135.49,9135.34,303.211,0.458798,0.0483752,2.02731,0.319721,14.6679,0.938212,0.908223,0.654542,0.346062,0.418486,0.756026,0.460774,0.59447,-0.61452,0.518623,0.68664,0.723588,0.0703252,-0.418486,0.314301,0.852106,1.51505e-10,4.88414e-10,14.6679,0.35337,0.431777,0.85722
1.5,-6.1383,4.61014,12.4986,0.0220294,0.364399,0.477314,0.35337,0.431777,0.85722,-9.97355e-10,5.48692e-10,-9135.34,9135.19,303.211,0.458806,0.0486976,2.02956,0.322023,14.7657,0.937216,0.907487,0.649749,0.34875,0.420081,0.760149,0.462905,0.589638,-0.617234,0.520912,0.689825,0.720319,0.0726756,-0.420081,0.316486,0.850511,1.51091e-10,4.90933e-10,14.7657,0.356237,0.433534,0.863542
1.51,-6.20277,4.67313,12.5584,0.0210969,0.363865,0.47709,0.356237,0.433534,0.863542,-1.00235e-09,5.52813e-10,-9135.19,9135.05,303.212,0.458814,0.04902,2.0318,0.324324,14.8635,0.936211,0.906756,0.644925,0.351438,0.421655,0.764246,0.465015,0.58479,-0.619927,0.523175,0.692985,0.717036,0.0750413,-0.421655,0.318669,0.848915,1.50685e-10,4.93432e-10,14.8635,0.359107,0.43527,0.869871
1.52,-6.26726,4.73652,12.6178,0.0201672,0.363323,0.476868,0.359107,0.43527,0.869871,-1.00732e-09,5.56958e-10,-9135.05,9134.9,303.213,0.458823,0.0493424,2.03402,0.326626,14.9613,0.935198,0.906032,0.640071,0.354126,0.42321,0.768316,0.467103,0.579924,-0.6226,0.525411,0.696119,0.71374,0.0774219,-0.42321,0.32085,0.847319,1.50288e-10,4.95905e-10,14.9613,0.36198,0.436985,0.876206
1.53,-6.33175,4.80031,12.6769,0.0192404,0.362775,0.476647,0.36198,0.436985,0.876206,-1.01226e-09,5.61127e-10,-9134.9,9134.75,303.213,0.458831,0.0496648,2.03622,0.328928,15.059,0.934175,0.905313,0.635186,0.356815,0.424744,0.772359,0.469168,0.575043,-0.625253,0.527622,0.699227,0.71043,0.0798172,-0.424744,0.323029,0.845721,1.49894e-10,4.98354e-10,15.059,0.364856,0.438679,0.882547
