time,x_vel_mps,y_vel_mps,z_vel_mps,roll_vel_rps,pitch_vel_rps,yaw_vel_rps,roll_angle,pitch_angle,yaw_angle,x_pos_ned,y_pos_ned,z_pos_ned,altitude_m,speed_of_sound_mps,air_density,mach,alpha_rad,beta_rad,true_airspeed_mps,c_phi,c_theta,c_psi,s_phi,s_theta,s_psi,t_theta,dcm_b2i_11,dcm_b2i_12,dcm_b2i_13,dcm_b2i_21,dcm_b2i_22,dcm_b2i_23,dcm_b2i_31,dcm_b2i_32,dcm_b2i_33,vx_ned_mps,vy_ned_mps,vz_ned_mps,roll_dcm_rad,pitch_dcm_rad,yaw_dcm_rad
0,1e-10,0,0,0,0,0,0,-1.5708,0,0,0,-9146.34,9146.34,303.163,0.458189,0.000322552,6.12323e-17,1e-09,0.0977858,1,6.12323e-17,1,0,-1,0,-1.63312e+16,6.12323e-17,-0,-1,0,1,-0,1,0,6.12323e-17,6.12323e-27,0,0.0977858,0,-1.5708,0
0.01,0.0977858,0,5.98766e-18,0,0,0,0,-1.5708,0,6.12323e-29,0,-9146.34,9146.34,303.163,0.458189,0.000645103,6.12323e-17,1e-09,0.195572,1,6.12323e-17,1,0,-1,0,-1.63312e+16,6.12323e-17,-0,-1,0,1,-0,1,0,6.12323e-17,6.12324e-27,0,0.195572,0,-1.5708,0
0.02,0.195572,0,1.19753e-17,0,0,0,0,-1.5708,0,1.22465e-28,0,-9146.34,9146.34,303.163,0.458189,0.000967655,6.12323e-17,1e-09,0.293358,1,6.12323e-17,1,0,-1,0,-1.63312e+16,6.12323e-17,-0,-1,0,1,-0,1,0,6.12323e-17,6.12324e-27,0,0.293358,0,-1.5708,0
0.03,0.293358,0,1.7963e-17,0,0,0,0,-1.5708,0,1.83697e-28,0,-9146.34,9146.33,303.163,0.458189,0.00129021,6.12323e-17,1e-09,0.391143,1,6.12323e-17,1,0,-1,0,-1.63312e+16,6.12323e-17,-0,-1,0,1,-0,1,0,6.12323e-17,6.12323e-27,0,0.391143,0,-1.5708,0
0.04,0.391143,0,2.39506e-17,0,0,0,0,-1.5708,0,2.44929e-28,0,-9146.33,9146.33,303.163,0.458189,0.00161276,6.12323e-17,1e-09,0.488929,1,6.12323e-17,1,0,-1,0,-1.63312e+16,6.12323e-17,-0,-1,0,1,-0,1,0,6.12323e-17,6.12324e-27,0,0.488929,0,-1.5708,0
0.05,0.488929,0,2.99383e-17,0,0,0,0,-1.5708,0,3.06162e-28,0,-9146.33,9146.32,303.163,0.45819,0.00193531,6.12323e-17,1e-09,0.586715,1,6.12323e-17,1,0,-1,0,-1.63312e+16,6.12323e-17,-0,-1,0,1,-0,1,0,6.12323e-17,6.12323e-27,0,0.586715,0,-1.5708,0
0.06,0.586715,0,3.59259e-17,0,0,0,0,-1.5708,0,3.67394e-28,0,-9146.32,9146.32,303.164,0.45819,0.00225786,6.12323e-17,1e-09,0.684501,1,6.12323e-17,1,0,-1,0,-1.63312e+16,6.12323e-17,-0,-1,0,1,-0,1,0,6.12323e-17,6.12323e-27,0,0.684501,0,-1.5708,0
0.07,0.684501,0,4.19136e-17,0,0,0,0,-1.5708,0,4.28626e-28,0,-9146.32,9146.31,303.164,0.45819,0.00258041,6.12323e-17,1e-09,0.782287,1,6.12323e-17,1,0,-1,0,-1.63312e+16,6.12323e-17,-0,-1,0,1,-0,1,0,6.12323e-17,6.12323e-27,0,0.782287,0,-1.5708,0
0.08,0.782287,0,4.79012e-17,0,0,0,0,-1.5708,0,4.89859e-28,0,-9146.31,9146.3,303.164,0.458191,0.00290296,6.12323e-17,1e-09,0.880073,1,6.12323e-17,1,0,-1,0,-1.63312e+16,6.12323e-17,-0,-1,0,1,-0,1,0,6.12323e-17,6.12323e-27,0,0.880073,0,-1.5708,0
0.09,0.880073,0,5.38889e-17,0,0,0,0,-1.5708,0,5.51091e-28,0,-9146.3,9146.29,303.164,0.458191,0.00322551,6.12323e-17,1e-09,0.977858,1,6.12323e-17,1,0,-1,0,-1.63312e+16,6.12323e-17,-0,-1,0,1,-0,1,0,6.12323e-17,6.12324e-27,0,0.977858,0,-1.5708,0
0.1,0.977858,0,5.98766e-17,0,0,0,0,-1.5708,0,6.12323e-28,0,-9146.29,9146.28,303.164,0.458192,0.00354806,6.12323e-17,1e-09,1.07564,1,6.12323e-17,1,0,-1,0,-1.63312e+16,6.12323e-17,-0,-1,0,1,-0,1,0,6.12323e-17,6.12325e-27,0,1.07564,0,-1.5708,0
0.11,1.07564,0,6.58642e-17,0,0,0,0,-1.5708,0,6.73556e-28,0,-9146.28,9146.27,303.164,0.458192,0.00387062,6.12323e-17,1e-09,1.17343,1,6.12323e-17,1,0,-1,0,-1.63312e+16,6.12323e-17,-0,-1,0,1,-0,1,0,6.12323e-17,6.12325e-27,0,1.17343,0,-1.5708,0
0.12,1.17343,0,7.18519e-17,0,0,0,0,-1.5708,0,7.34788e-28,0,-9146.27,9146.26,303.164,0.458193,0.00419317,6.12323e-17,1e-09,1.27122,1,6.12323e-17,1,0,-1,0,-1.63312e+16,6.12323e-17,-0,-1,0,1,-0,1,0,6.12323e-17,6.12325e-27,0,1.27122,0,-1.5708,0
0.13,1.27122,0,7.78395e-17,0,0,0,0,-1.5708,0,7.96021e-28,0,-9146.26,9146.25,303.164,0.458194,0.00451572,6.12323e-17,1e-09,1.369,1,6.12323e-17,1,0,-1,0,-1.63312e+16,6.12323e-17,-0,-1,0,1,-0,1,0,6.12323e-17,6.12324e-27,0,1.369,0,-1.5708,0
0.14,1.369,0,8.38272e-17,0,0,0,0,-1.5708,0,8.57253e-28,0,-9146.25,9146.23,303.164,0.458195,0.00483827,6.12323e-17,1e-09,1.46679,1,6.12323e-17,1,0,-1,0,-1.63312e+16,6.12323e-17,-0,-1,0,1,-0,1,0,6.12323e-17,6.12324e-27,0,1.46679,0,-1.5708,0
0.15,1.46679,0,8.98148e-17,0,0,0,0,-1.5708,0,9.18486e-28,0,-9146.23,9146.22,303.164,0.458196,0.00516082,6.12323e-17,1e-09,1.56457,1,6.12323e-17,1,0,-1,0,-1.63312e+16,6.12323e-17,-0,-1,0,1,-0,1,0,6.12323e-17,6.12324e-27,0,1.56457,0,-1.5708,0
0.16,1.56457,0,9.58025e-17,0,0,0,0,-1.5708,0,9.79718e-28,0,-9146.22,9146.2,303.164,0.458196,0.00548337,6.12323e-17,1e-09,1.66236,1,6.12323e-17,1,0,-1,0,-1.63312e+16,6.12323e-17,-0,-1,0,1,-0,1,0,6.12323e-17,6.12324e-27,0,1.66236,0,-1.5708,0
0.17,1.66236,0,1.0179e-16,0,0,0,0,-1.5708,0,1.04095e-27,0,-9146.2,9146.18,303.164,0.458197,0.00580592,6.12323e-17,1e-09,1.76015,1,6.12323e-17,1,0,-1,0,-1.63312e+16,6.12323e-17,-0,-1,0,1,-0,1,0,6.12323e-17,6.12324e-27,0,1.76015,0,-1.5708,0
0.18,1.76015,0,1.07778e-16,0,0,0,0,-1.5708,0,1.10218e-27,0,-9146.18,9146.16,303.164,0.458198,0.00612847,6.12323e-17,1e-09,1.85793,1,6.12323e-17,1,0,-1,0,-1.63312e+16,6.12323e-17,-0,-1,0,1,-0,1,0,6.12323e-17,6.12321e-27,0,1.85793,0,-1.5708,0
0.19,1.85793,0,1.13765e-16,0,0,0,0,-1.5708,0,1.16342e-27,0,-9146.16,9146.15,303.164,0.458199,0.00645101,6.12323e-17,1e-09,1.95572,1,6.12323e-17,1,0,-1,0,-1.63312e+16,6.12323e-17,-0,-1,0,1,-0,1,0,6.12323e-17,6.12321e-27,0,1.95572,0,-1.5708,0
0.2,1.95572,0,1.19753e-16,0,0,0,0,-1.5708,0,1.22465e-27,0,-9146.15,9146.13,303.164,0.458201,0.00677356,6.12323e-17,1e-09,2.0535,1,6.12323e-17,1,0,-1,0,-1.63312e+16,6.12323e-17,-0,-1,0,1,-0,1,0,6.12323e-17,6.12319e-27,0,2.0535,0,-1.5708,0
0.21,2.0535,0,1.25741e-16,0,0,0,0,-1.5708,0,1.28588e-27,0,-9146.13,9146.1,303.164,0.458202,0.00709611,6.12323e-17,1e-09,2.15129,1,6.12323e-17,1,0,-1,0,-1.63312e+16,6.12323e-17,-0,-1,0,1,-0,1,0,6.12323e-17,6.12319e-27,0,2.15129,0,-1.5708,0
0.22,2.15129,0,1.31728e-16,0,0,0,0,-1.5708,0,1.34711e-27,0,-9146.1,9146.08,303.165,0.458203,0.00741866,6.12323e-17,1e-09,2.24907,1,6.12323e-17,1,0,-1,0,-1.63312e+16,6.12323e-17,-0,-1,0,1,-0,1,0,6.12323e-17,6.12319e-27,0,2.24907,0,-1.5708,0
0.23,2.24907,0,1.37716e-16,0,0,0,0,-1.5708,0,1.40834e-27,0,-9146.08,9146.06,303.165,0.458204,0.00774121,6.12323e-17,1e-09,2.34686,1,6.12323e-17,1,0,-1,0,-1.63312e+16,6.12323e-17,-0,-1,0,1,-0,1,0,6.12323e-17,6.12319e-27,0,2.34686,0,-1.5708,0
0.24,2.34686,0,1.43704e-16,0,0,0,0,-1.5708,0,1.46958e-27,0,-9146.06,9146.04,303.165,0.458206,0.00806376,6.12323e-17,1e-09,2.44465,1,6.12323e-17,1,0,-1,0,-1.63312e+16,6.12323e-17,-0,-1,0,1,-0,1,0,6.12323e-17,6.12321e-27,0,2.44465,0,-1.5708,0
0.25,2.44465,0,1.49691e-16,0,0,0,0,-1.5708,0,1.53081e-27,0,-9146.04,9146.01,303.165,0.458207,0.0083863,6.12323e-17,1e-09,2.54243,1,6.12323e-17,1,0,-1,0,-1.63312e+16,6.12323e-17,-0,-1,0,1,-0,1,0,6.12323e-17,6.12321e-27,0,2.54243,0,-1.5708,0
0.26,2.54243,0,1.55679e-16,0,0,0,0,-1.5708,0,1.59204e-27,0,-9146.01,9145.99,303.165,0.458208,0.00870885,6.12323e-17,1e-09,2.64022,1,6.12323e-17,1,0,-1,0,-1.63312e+16,6.12323e-17,-0,-1,0,1,-0,1,0,6.12323e-17,6.12321e-27,0,2.64022,0,-1.5708,0
0.27,2.64022,0,1.61667e-16,0,0,0,0,-1.5708,0,1.65327e-27,0,-9145.99,9145.96,303.165,0.45821,0.0090314,6.12323e-17,1e-09,2.738,1,6.12323e-17,1,0,-1,0,-1.63312e+16,6.12323e-17,-0,-1,0,1,-0,1,0,6.12323e-17,6.12324e-27,0,2.738,0,-1.5708,0
0.28,2.738,0,1.67654e-16,0,0,0,0,-1.5708,0,1.7145e-27,0,-9145.96,9145.93,303.165,0.458211,0.00935394,6.12323e-17,1e-09,2.83579,1,6.12323e-17,1,0,-1,0,-1.63312e+16,6.12323e-17,-0,-1,0,1,-0,1,0,6.12323e-17,6.12324e-27,0,2.83579,0,-1.5708,0
0.29,2.83579,0,1.73642e-16,0,0,0,0,-1.5708,0,1.77574e-27,0,-9145.93,9145.9,303.165,0.458213,0.00967649,6.12323e-17,1e-09,2.93358,1,6.12323e-17,1,0,-1,0,-1.63312e+16,6.12323e-17,-0,-1,0,1,-0,1,0,6.12323e-17,6.12326e-27,0,2.93358,0,-1.5708,0
0.3,2.93358,0,1.7963e-16,0,0,0,0,-1.5708,0,1.83697e-27,0,-9145.9,9145.87,303.165,0.458215,0.00999903,6.12323e-17,1e-09,3.03136,1,6.12323e-17,1,0,-1,0,-1.63312e+16,6.12323e-17,-0,-1,0,1,-0,1,0,6.12323e-17,6.12326e-27,0,3.03136,0,-1.5708,0
0.31,3.03136,0,1.85617e-16,0,0,0,0,-1.5708,0,1.8982e-27,0,-9145.87,9145.84,303.166,0.458216,0.0103216,6.12323e-17,1e-09,3.12915,1,6.12323e-17,1,0,-1,0,-1.63312e+16,6.12323e-17,-0,-1,0,1,-0,1,0,6.12323e-17,6.12326e-27,0,3.12915,0,-1.5708,0
0.32,3.12915,0,1.91605e-16,0,0,0,0,-1.5708,0,1.95943e-27,0,-9145.84,9145.81,303.166,0.458218,0.0106441,6.12323e-17,1e-09,3.22693,1,6.12323e-17,1,0,-1,0,-1.63312e+16,6.12323e-17,-0,-1,0,1,-0,1,0,6.12323e-17,6.12329e-27,0,3.22693,0,-1.5708,0
0.33,3.22693,0,1.97593e-16,0,0,0,0,-1.5708,0,2.02067e-27,0,-9145.81,9145.78,303.166,0.45822,0.0109667,6.12323e-17,1e-09,3.32472,1,6.12323e-17,1,0,-1,0,-1.63312e+16,6.12323e-17,-0,-1,0,1,-0,1,0,6.12323e-17,6.12326e-27,0,3.32472,0,-1.5708,0
0.34,3.32472,0,2.0358e-16,0,0,0,0,-1.5708,0,2.0819e-27,0,-9145.78,9145.74,303.166,0.458222,0.0112892,6.12323e-17,1e-09,3.4225,1,6.12323e-17,1,0,-1,0,-1.63312e+16,6.12323e-17,-0,-1,0,1,-0,1,0,6.12323e-17,6.12329e-27,0,3.4225,0,-1.5708,0
0.35,3.4225,0,2.09568e-16,0,0,0,0,-1.5708,0,2.14313e-27,0,-9145.74,9145.71,303.166,0.458224,0.0116118,6.12323e-17,1e-09,3.52029,1,6.12323e-17,1,0,-1,0,-1.63312e+16,6.12323e-17,-0,-1,0,1,-0,1,0,6.12323e-17,6.12329e-27,0,3.52029,0,-1.5708,0
0.36,3.52029,0,2.15556e-16,0,0,0,0,-1.5708,0,2.20436e-27,0,-9145.71,9145.67,303.166,0.458226,0.0119343,6.12323e-17,1e-09,3.61808,1,6.12323e-17,1,0,-1,0,-1.63312e+16,6.12323e-17,-0,-1,0,1,-0,1,0,6.12323e-17,6.12331e-27,0,3.61808,0,-1.5708,0
0.37,3.61808,0,2.21543e-16,0,0,0,0,-1.5708,0,2.2656e-27,0,-9145.67,9145.64,303.166,0.458228,0.0122568,6.12323e-17,1e-09,3.71586,1,6.12323e-17,1,0,-1,0,-1.63312e+16,6.12323e-17,-0,-1,0,1,-0,1,0,6.12323e-17,6.12329e-27,0,3.71586,0,-1.5708,0
0.38,3.71586,0,2.27531e-16,0,0,0,0,-1.5708,0,2.32683e-27,0,-9145.64,9145.6,303.167,0.45823,0.0125794,6.12323e-17,1e-09,3.81365,1,6.12323e-17,1,0,-1,0,-1.63312e+16,6.12323e-17,-0,-1,0,1,-0,1,0,6.12323e-17,6.12324e-27,0,3.81365,0,-1.5708,0
0.39,3.81365,0,2.33519e-16,0,0,0,0,-1.5708,0,2.38806e-27,0,-9145.6,9145.56,303.167,0.458232,0.0129019,6.12323e-17,1e-09,3.91143,1,6.12323e-17,1,0,-1,0,-1.63312e+16,6.12323e-17,-0,-1,0,1,-0,1,0,6.12323e-17,6.12324e-27,0,3.91143,0,-1.5708,0
0.4,3.91143,0,2.39506e-16,0,0,0,0,-1.5708,0,2.4493e-27,0,-9145.56,9145.52,303.167,0.458234,0.0132245,6.12323e-17,1e-09,4.00922,1,6.12323e-17,1,0,-1,0,-1.63312e+16,6.12323e-17,-0,-1,0,1,-0,1,0,6.12323e-17,6.12324e-27,0,4.00922,0,-1.5708,0
0.41,4.00922,0,2.45494e-16,0,0,0,0,-1.5708,0,2.51053e-27,0,-9145.52,9145.48,303.167,0.458236,0.013547,6.12323e-17,1e-09,4.10701,1,6.12323e-17,1,0,-1,0,-1.63312e+16,6.12323e-17,-0,-1,0,1,-0,1,0,6.12323e-17,6.12324e-27,0,4.10701,0,-1.5708,0
0.42,4.10701,0,2.51482e-16,0,0,0,0,-1.5708,0,2.57176e-27,0,-9145.48,9145.44,303.167,0.458239,0.0138695,6.12323e-17,1e-09,4.20479,1,6.12323e-17,1,0,-1,0,-1.63312e+16,6.12323e-17,-0,-1,0,1,-0,1,0,6.12323e-17,6.12324e-27,0,4.20479,0,-1.5708,0
0.43,4.20479,0,2.57469e-16,0,0,0,0,-1.5708,0,2.63299e-27,0,-9145.44,9145.39,303.167,0.458241,0.0141921,6.12323e-17,1e-09,4.30258,1,6.12323e-17,1,0,-1,0,-1.63312e+16,6.12323e-17,-0,-1,0,1,-0,1,0,6.12323e-17,6.12319e-27,0,4.30258,0,-1.5708,0
0.44,4.30258,0,2.63457e-16,0,0,0,0,-1.5708,0,2.69422e-27,0,-9145.39,9145.35,303.168,0.458243,0.0145146,6.12323e-17,1e-09,4.40036,1,6.12323e-17,1,0,-1,0,-1.63312e+16,6.12323e-17,-0,-1,0,1,-0,1,0,6.12323e-17,6.12324e-27,0,4.40036,0,-1.5708,0
0.45,4.40036,0,2.69445e-16,0,0,0,0,-1.5708,0,2.75546e-27,0,-9145.35,9145.31,303.168,0.458246,0.0148372,6.12323e-17,1e-09,4.49815,1,6.12323e-17,1,0,-1,0,-1.63312e+16,6.12323e-17,-0,-1,0,1,-0,1,0,6.12323e-17,6.12324e-27,0,4.49815,0,-1.5708,0
0.46,4.49815,0,2.75432e-16,0,0,0,0,-1.5708,0,2.81669e-27,0,-9145.31,9145.26,303.168,0.458248,0.0151597,6.12323e-17,1e-09,4.59594,1,6.12323e-17,1,0,-1,0,-1.63312e+16,6.12323e-17,-0,-1,0,1,-0,1,0,6.12323e-17,6.12324e-27,0,4.59594,0,-1.5708,0
0.47,4.59594,0,2.8142e-16,0,0,0,0,-1.5708,0,2.87792e-27,0,-9145.26,9145.21,303.168,0.458251,0.0154822,6.12323e-17,1e-09,4.69372,1,6.12323e-17,1,0,-1,0,-1.63312e+16,6.12323e-17,-0,-1,0,1,-0,1,0,6.12323e-17,6.12324e-27,0,4.69372,0,-1.5708,0
0.48,4.69372,0,2.87408e-16,0,0,0,0,-1.5708,0,2.93915e-27,0,-9145.21,9145.17,303.168,0.458254,0.0158048,6.12323e-17,1e-09,4.79151,1,6.12323e-17,1,0,-1,0,-1.63312e+16,6.12323e-17,-0,-1,0,1,-0,1,0,6.12323e-17,6.12324e-27,0,4.79151,0,-1.5708,0
0.49,4.79151,0,2.93395e-16,0,0,0,0,-1.5708,0,3.00039e-27,0,-9145.17,9145.12,303.169,0.458256,0.0161273,6.12323e-17,1e-09,4.88929,1,6.12323e-17,1,0,-1,0,-1.63312e+16,6.12323e-17,-0,-1,0,1,-0,1,0,6.12323e-17,6.12324e-27,0,4.88929,0,-1.5708,0
0.5,4.88929,0,2.99383e-16,0,0,0,0,-1.5708,0,3.06162e-27,0,-9145.12,9145.07,303.169,0.458259,0.0164498,6.12323e-17,1e-09,4.98708,1,6.12323e-17,1,0,-1,0,-1.63312e+16,6.12323e-17,-0,-1,0,1,-0,1,0,6.12323e-17,6.12324e-27,0,4.98708,0,-1.5708,0
0.51,4.98708,0,3.05371e-16,0,0,0,0,-1.5708,0,3.12285e-27,0,-9145.07,9145.02,303.169,0.458262,0.0167724,6.12323e-17,1e-09,5.08486,1,6.12323e-17,1,0,-1,0,-1.63312e+16,6.12323e-17,-0,-1,0,1,-0,1,0,6.12323e-17,6.12324e-27,0,5.08486,0,-1.5708,0
0.52,5.08486,0,3.11358e-16,0,0,0,0,-1.5708,0,3.18408e-27,0,-9145.02,9144.97,303.169,0.458265,0.0170949,6.12323e-17,1e-09,5.18265,1,6.12323e-17,1,0,-1,0,-1.63312e+16,6.12323e-17,-0,-1,0,1,-0,1,0,6.12323e-17,6.12324e-27,0,5.18265,0,-1.5708,0
0.53,5.18265,0,3.17346e-16,0,0,0,0,-1.5708,0,3.24532e-27,0,-9144.97,9144.92,303.17,0.458268,0.0174174,6.12323e-17,1e-09,5.28044,1,6.12323e-17,1,0,-1,0,-1.63312e+16,6.12323e-17,-0,-1,0,1,-0,1,0,6.12323e-17,6.12319e-27,0,5.28044,0,-1.5708,0
0.54,5.28044,0,3.23333e-16,0,0,0,0,-1.5708,0,3.30655e-27,0,-9144.92,9144.86,303.17,0.458271,0.01774,6.12323e-17,1e-09,5.37822,1,6.12323e-17,1,0,-1,0,-1.63312e+16,6.12323e-17,-0,-1,0,1,-0,1,0,6.12323e-17,6.12319e-27,0,5.37822,0,-1.5708,0
0.55,5.37822,0,3.29321e-16,0,0,0,0,-1.5708,0,3.36778e-27,0,-9144.86,9144.81,303.17,0.458274,0.0180625,6.12323e-17,1e-09,5.47601,1,6.12323e-17,1,0,-1,0,-1.63312e+16,6.12323e-17,-0,-1,0,1,-0,1,0,6.12323e-17,6.12314e-27,0,5.47601,0,-1.5708,0
0.56,5.47601,0,3.35309e-16,0,0,0,0,-1.5708,0,3.42901e-27,0,-9144.81,9144.75,303.17,0.458277,0.018385,6.12323e-17,1e-09,5.57379,1,6.12323e-17,1,0,-1,0,-1.63312e+16,6.12323e-17,-0,-1,0,1,-0,1,0,6.12323e-17,6.12314e-27,0,5.57379,0,-1.5708,0
0.57,5.57379,0,3.41296e-16,0,0,0,0,-1.5708,0,3.49024e-27,0,-9144.75,9144.7,303.17,0.45828,0.0187076,6.12323e-17,1e-09,5.67158,1,6.12323e-17,1,0,-1,0,-1.63312e+16,6.12323e-17,-0,-1,0,1,-0,1,0,6.12323e-17,6.12309e-27,0,5.67158,0,-1.5708,0
0.58,5.67158,0,3.47284e-16,0,0,0,0,-1.5708,0,3.55147e-27,0,-9144.7,9144.64,303.171,0.458283,0.0190301,6.12323e-17,1e-09,5.76937,1,6.12323e-17,1,0,-1,0,-1.63312e+16,6.12323e-17,-0,-1,0,1,-0,1,0,6.12323e-17,6.12309e-27,0,5.76937,0,-1.5708,0
0.59,5.76937,0,3.53272e-16,0,0,0,0,-1.5708,0,3.6127e-27,0,-9144.64,9144.58,303.171,0.458286,0.0193526,6.12323e-17,1e-09,5.86715,1,6.12323e-17,1,0,-1,0,-1.63312e+16,6.12323e-17,-0,-1,0,1,-0,1,0,6.12323e-17,6.12314e-27,0,5.86715,0,-1.5708,0
0.6,5.86715,0,3.59259e-16,0,0,0,0,-1.5708,0,3.67394e-27,0,-9144.58,9144.52,303.171,0.458289,0.0196751,6.12323e-17,1e-09,5.96494,1,6.12323e-17,1,0,-1,0,-1.63312e+16,6.12323e-17,-0,-1,0,1,-0,1,0,6.12323e-17,6.12309e-27,0,5.96494,0,-1.5708,0
0.61,5.96494,0,3.65247e-16,0,0,0,0,-1.5708,0,3.73517e-27,0,-9144.52,9144.46,303.172,0.458293,0.0199977,6.12323e-17,1e-09,6.06272,1,6.12323e-17,1,0,-1,0,-1.63312e+16,6.12323e-17,-0,-1,0,1,-0,1,0,6.12323e-17,6.12314e-27,0,6.06272,0,-1.5708,0
0.62,6.06272,0,3.71235e-16,0,0,0,0,-1.5708,0,3.7964e-27,0,-9144.46,9144.4,303.172,0.458296,0.0203202,6.12323e-17,1e-09,6.16051,1,6.12323e-17,1,0,-1,0,-1.63312e+16,6.12323e-17,-0,-1,0,1,-0,1,0,6.12323e-17,6.12314e-27,0,6.16051,0,-1.5708,0
0.63,6.16051,0,3.77222e-16,0,0,0,0,-1.5708,0,3.85763e-27,0,-9144.4,9144.34,303.172,0.4583,0.0206427,6.12323e-17,1e-09,6.2583,1,6.12323e-17,1,0,-1,0,-1.63312e+16,6.12323e-17,-0,-1,0,1,-0,1,0,6.12323e-17,6.12314e-27,0,6.2583,0,-1.5708,0
0.64,6.2583,0,3.8321e-16,0,0,0,0,-1.5708,0,3.91886e-27,0,-9144.34,9144.28,303.172,0.458303,0.0209652,6.12323e-17,1e-09,6.35608,1,6.12323e-17,1,0,-1,0,-1.63312e+16,6.12323e-17,-0,-1,0,1,-0,1,0,6.12323e-17,6.12314e-27,0,6.35608,0,-1.5708,0
0.65,6.35608,0,3.89198e-16,0,0,0,0,-1.5708,0,3.98009e-27,0,-9144.28,9144.21,303.173,0.458307,0.0212878,6.12323e-17,1e-09,6.45387,1,6.12323e-17,1,0,-1,0,-1.63312e+16,6.12323e-17,-0,-1,0,1,-0,1,0,6.12323e-17,6.12309e-27,0,6.45387,0,-1.5708,0
0.66,6.45387,0,3.95185e-16,0,0,0,0,-1.5708,0,4.04132e-27,0,-9144.21,9144.15,303.173,0.45831,0.0216103,6.12323e-17,1e-09,6.55165,1,6.12323e-17,1,0,-1,0,-1.63312e+16,6.12323e-17,-0,-1,0,1,-0,1,0,6.12323e-17,6.12309e-27,0,6.55165,0,-1.5708,0
0.67,6.55165,0,4.01173e-16,0,0,0,0,-1.5708,0,4.10255e-27,0,-9144.15,9144.08,303.173,0.458314,0.0219328,6.12323e-17,1e-09,6.64944,1,6.12323e-17,1,0,-1,0,-1.63312e+16,6.12323e-17,-0,-1,0,1,-0,1,0,6.12323e-17,6.12304e-27,0,6.64944,0,-1.5708,0
0.68,6.64944,0,4.07161e-16,0,0,0,0,-1.5708,0,4.16378e-27,0,-9144.08,9144.01,303.173,0.458318,0.0222553,6.12323e-17,1e-09,6.74723,1,6.12323e-17,1,0,-1,0,-1.63312e+16,6.12323e-17,-0,-1,0,1,-0,1,0,6.12323e-17,6.12304e-27,0,6.74723,0,-1.5708,0
0.69,6.74723,0,4.13148e-16,0,0,0,0,-1.5708,0,4.22501e-27,0,-9144.01,9143.95,303.174,0.458321,0.0225778,6.12323e-17,1e-09,6.84501,1,6.12323e-17,1,0,-1,0,-1.63312e+16,6.12323e-17,-0,-1,0,1,-0,1,0,6.12323e-17,6.12299e-27,0,6.84501,0,-1.5708,0
0.7,6.84501,0,4.19136e-16,0,0,0,0,-1.5708,0,4.28625e-27,0,-9143.95,9143.88,303.174,0.458325,0.0229004,6.12323e-17,1e-09,6.9428,1,6.12323e-17,1,0,-1,0,-1.63312e+16,6.12323e-17,-0,-1,0,1,-0,1,0,6.12323e-17,6.12299e-27,0,6.9428,0,-1.5708,0
0.71,6.9428,0,4.25124e-16,0,0,0,0,-1.5708,0,4.34748e-27,0,-9143.88,9143.81,303.174,0.458329,0.0232229,6.12323e-17,1e-09,7.04058,1,6.12323e-17,1,0,-1,0,-1.63312e+16,6.12323e-17,-0,-1,0,1,-0,1,0,6.12323e-17,6.12299e-27,0,7.04058,0,-1.5708,0
0.72,7.04058,0,4.31111e-16,0,0,0,0,-1.5708,0,4.40871e-27,0,-9143.81,9143.74,303.175,0.458333,0.0235454,6.12323e-17,1e-09,7.13837,1,6.12323e-17,1,0,-1,0,-1.63312e+16,6.12323e-17,-0,-1,0,1,-0,1,0,6.12323e-17,6.12299e-27,0,7.13837,0,-1.5708,0
0.73,7.13837,0,4.37099e-16,0,0,0,0,-1.5708,0,4.46993e-27,0,-9143.74,9143.66,303.175,0.458337,0.0238679,6.12323e-17,1e-09,7.23615,1,6.12323e-17,1,0,-1,0,-1.63312e+16,6.12323e-17,-0,-1,0,1,-0,1,0,6.12323e-17,6.12299e-27,0,7.23615,0,-1.5708,0
0.74,7.23615,0,4.43087e-16,0,0,0,0,-1.5708,0,4.53116e-27,0,-9143.66,9143.59,303.175,0.458341,0.0241904,6.12323e-17,1e-09,7.33394,1,6.12323e-17,1,0,-1,0,-1.63312e+16,6.12323e-17,-0,-1,0,1,-0,1,0,6.12323e-17,6.12294e-27,0,7.33394,0,-1.5708,0
0.75,7.33394,0,4.49074e-16,0,0,0,0,-1.5708,0,4.59239e-27,0,-9143.59,9143.52,303.176,0.458345,0.0245129,6.12323e-17,1e-09,7.43173,1,6.12323e-17,1,0,-1,0,-1.63312e+16,6.12323e-17,-0,-1,0,1,-0,1,0,6.12323e-17,6.12294e-27,0,7.43173,0,-1.5708,0
0.76,7.43173,0,4.55062e-16,0,0,0,0,-1.5708,0,4.65362e-27,0,-9143.52,9143.44,303.176,0.458349,0.0248355,6.12323e-17,1e-09,7.52951,1,6.12323e-17,1,0,-1,0,-1.63312e+16,6.12323e-17,-0,-1,0,1,-0,1,0,6.12323e-17,6.12294e-27,0,7.52951,0,-1.5708,0
0.77,7.52951,0,4.6105e-16,0,0,0,0,-1.5708,0,4.71485e-27,0,-9143.44,9143.37,303.176,0.458353,0.025158,6.12323e-17,1e-09,7.6273,1,6.12323e-17,1,0,-1,0,-1.63312e+16,6.12323e-17,-0,-1,0,1,-0,1,0,6.12323e-17,6.12294e-27,0,7.6273,0,-1.5708,0
0.78,7.6273,0,4.67037e-16,0,0,0,0,-1.5708,0,4.77608e-27,0,-9143.37,9143.29,303.177,0.458358,0.0254805,6.12323e-17,1e-09,7.72508,1,6.12323e-17,1,0,-1,0,-1.63312e+16,6.12323e-17,-0,-1,0,1,-0,1,0,6.12323e-17,6.12294e-27,0,7.72508,0,-1.5708,0
0.79,7.72508,0,4.73025e-16,0,0,0,0,-1.5708,0,4.83731e-27,0,-9143.29,9143.21,303.177,0.458362,0.025803,6.12323e-17,1e-09,7.82287,1,6.12323e-17,1,0,-1,0,-1.63312e+16,6.12323e-17,-0,-1,0,1,-0,1,0,6.12323e-17,6.12294e-27,0,7.82287,0,-1.5708,0
0.8,7.82287,0,4.79013e-16,0,0,0,0,-1.5708,0,4.89854e-27,0,-9143.21,9143.13,303.177,0.458366,0.0261255,6.12323e-17,1e-09,7.92066,1,6.12323e-17,1,0,-1,0,-1.63312e+16,6.12323e-17,-0,-1,0,1,-0,1,0,6.12323e-17,6.12304e-27,0,7.92066,0,-1.5708,0
0.81,7.92066,0,4.85e-16,0,0,0,0,-1.5708,0,4.95977e-27,0,-9143.13,9143.05,303.178,0.458371,0.026448,6.12323e-17,1e-09,8.01844,1,6.12323e-17,1,0,-1,0,-1.63312e+16,6.12323e-17,-0,-1,0,1,-0,1,0,6.12323e-17,6.12294e-27,0,8.01844,0,-1.5708,0
0.82,8.01844,0,4.90988e-16,0,0,0,0,-1.5708,0,5.021e-27,0,-9143.05,9142.97,303.178,0.458375,0.0267705,6.12323e-17,1e-09,8.11623,1,6.12323e-17,1,0,-1,0,-1.63312e+16,6.12323e-17,-0,-1,0,1,-0,1,0,6.12323e-17,6.12294e-27,0,8.11623,0,-1.5708,0
0.83,8.11623,0,4.96976e-16,0,0,0,0,-1.5708,0,5.08223e-27,0,-9142.97,9142.89,303.178,0.45838,0.027093,6.12323e-17,1e-09,8.21401,1,6.12323e-17,1,0,-1,0,-1.63312e+16,6.12323e-17,-0,-1,0,1,-0,1,0,6.12323e-17,6.12284e-27,0,8.21401,0,-1.5708,0
0.84,8.21401,0,5.02963e-16,0,0,0,0,-1.5708,0,5.14346e-27,0,-9142.89,9142.81,303.179,0.458384,0.0274155,6.12323e-17,1e-09,8.3118,1,6.12323e-17,1,0,-1,0,-1.63312e+16,6.12323e-17,-0,-1,0,1,-0,1,0,6.12323e-17,6.12284e-27,0,8.3118,0,-1.5708,0
0.85,8.3118,0,5.08951e-16,0,0,0,0,-1.5708,0,5.20469e-27,0,-9142.81,9142.73,303.179,0.458389,0.027738,6.12323e-17,1e-09,8.40959,1,6.12323e-17,1,0,-1,0,-1.63312e+16,6.12323e-17,-0,-1,0,1,-0,1,0,6.12323e-17,6.12284e-27,0,8.40959,0,-1.5708,0
0.86,8.40959,0,5.14939e-16,0,0,0,0,-1.5708,0,5.26592e-27,0,-9142.73,9142.64,303.179,0.458394,0.0280605,6.12323e-17,1e-09,8.50737,1,6.12323e-17,1,0,-1,0,-1.63312e+16,6.12323e-17,-0,-1,0,1,-0,1,0,6.12323e-17,6.12274e-27,0,8.50737,0,-1.5708,0
0.87,8.50737,0,5.20926e-16,0,0,0,0,-1.5708,0,5.32715e-27,0,-9142.64,9142.56,303.18,0.458398,0.028383,6.12323e-17,1e-09,8.60516,1,6.12323e-17,1,0,-1,0,-1.63312e+16,6.12323e-17,-0,-1,0,1,-0,1,0,6.12323e-17,6.12284e-27,0,8.60516,0,-1.5708,0
0.88,8.60516,0,5.26914e-16,0,0,0,0,-1.5708,0,5.38837e-27,0,-9142.56,9142.47,303.18,0.458403,0.0287055,6.12323e-17,1e-09,8.70294,1,6.12323e-17,1,0,-1,0,-1.63312e+16,6.12323e-17,-0,-1,0,1,-0,1,0,6.12323e-17,6.12284e-27,0,8.70294,0,-1.5708,0
0.89,8.70294,0,5.32902e-16,0,0,0,0,-1.5708,0,5.4496e-27,0,-9142.47,9142.38,303.18,0.458408,0.029028,6.12323e-17,1e-09,8.80073,1,6.12323e-17,1,0,-1,0,-1.63312e+16,6.12323e-17,-0,-1,0,1,-0,1,0,6.12323e-17,6.12294e-27,0,8.80073,0,-1.5708,0
0.9,8.80073,0,5.38889e-16,0,0,0,0,-1.5708,0,5.51083e-27,0,-9142.38,9142.29,303.181,0.458413,0.0293505,6.12323e-17,1e-09,8.89852,1,6.12323e-17,1,0,-1,0,-1.63312e+16,6.12323e-17,-0,-1,0,1,-0,1,0,6.12323e-17,6.12284e-27,0,8.89852,0,-1.5708,0
0.91,8.89852,0,5.44877e-16,0,0,0,0,-1.5708,0,5.57206e-27,0,-9142.29,9142.2,303.181,0.458418,0.029673,6.12323e-17,1e-09,8.9963,1,6.12323e-17,1,0,-1,0,-1.63312e+16,6.12323e-17,-0,-1,0,1,-0,1,0,6.12323e-17,6.12294e-27,0,8.9963,0,-1.5708,0
0.92,8.9963,0,5.50865e-16,0,0,0,0,-1.5708,0,5.63329e-27,0,-9142.2,9142.11,303.182,0.458423,0.0299955,6.12323e-17,1e-09,9.09409,1,6.12323e-17,1,0,-1,0,-1.63312e+16,6.12323e-17,-0,-1,0,1,-0,1,0,6.12323e-17,6.12294e-27,0,9.09409,0,-1.5708,0
0.93,9.09409,0,5.56852e-16,0,0,0,0,-1.5708,0,5.69452e-27,0,-9142.11,9142.02,303.182,0.458428,0.030318,6.12323e-17,1e-09,9.19187,1,6.12323e-17,1,0,-1,0,-1.63312e+16,6.12323e-17,-0,-1,0,1,-0,1,0,6.12323e-17,6.12294e-27,0,9.19187,0,-1.5708,0
0.94,9.19187,0,5.6284e-16,0,0,0,0,-1.5708,0,5.75575e-27,0,-9142.02,9141.93,303.182,0.458433,0.0306405,6.12323e-17,1e-09,9.28966,1,6.12323e-17,1,0,-1,0,-1.63312e+16,6.12323e-17,-0,-1,0,1,-0,1,0,6.12323e-17,6.12304e-27,0,9.28966,0,-1.5708,0
0.95,9.28966,0,5.68828e-16,0,0,0,0,-1.5708,0,5.81697e-27,0,-9141.93,9141.84,303.183,0.458438,0.030963,6.12323e-17,1e-09,9.38745,1,6.12323e-17,1,0,-1,0,-1.63312e+16,6.12323e-17,-0,-1,0,1,-0,1,0,6.12323e-17,6.12304e-27,0,9.38745,0,-1.5708,0
0.96,9.38745,0,5.74815e-16,0,0,0,0,-1.5708,0,5.8782e-27,0,-9141.84,9141.74,303.183,0.458443,0.0312855,6.12323e-17,1e-09,9.48523,1,6.12323e-17,1,0,-1,0,-1.63312e+16,6.12323e-17,-0,-1,0,1,-0,1,0,6.12323e-17,6.12294e-27,0,9.48523,0,-1.5708,0
0.97,9.48523,0,5.80803e-16,0,0,0,0,-1.5708,0,5.93943e-27,0,-9141.74,9141.65,303.184,0.458449,0.031608,6.12323e-17,1e-09,9.58302,1,6.12323e-17,1,0,-1,0,-1.63312e+16,6.12323e-17,-0,-1,0,1,-0,1,0,6.12323e-17,6.12294e-27,0,9.58302,0,-1.5708,0
0.98,9.58302,0,5.86791e-16,0,0,0,0,-1.5708,0,6.00066e-27,0,-9141.65,9141.55,303.184,0.458454,0.0319305,6.12323e-17,1e-09,9.6808,1,6.12323e-17,1,0,-1,0,-1.63312e+16,6.12323e-17,-0,-1,0,1,-0,1,0,6.12323e-17,6.12294e-27,0,9.6808,0,-1.5708,0
0.99,9.6808,0,5.92778e-16,0,0,0,0,-1.5708,0,6.06189e-27,0,-9141.55,9141.45,303.184,0.458459,0.0322529,6.12323e-17,1e-09,9.77859,1,6.12323e-17,1,0,-1,0,-1.63312e+16,6.12323e-17,-0,-1,0,1,-0,1,0,6.12323e-17,6.12284e-27,0,9.77859,0,-1.5708,0
1,9.77859,0,5.98766e-16,0,0,0,0,-1.5708,0,6.12312e-27,0,-9141.45,9141.35,303.185,0.458465,0.0325754,6.12323e-17,1e-09,9.87638,1,6.12323e-17,1,0,-1,0,-1.63312e+16,6.12323e-17,-0,-1,0,1,-0,1,0,6.12323e-17,6.12294e-27,0,9.87638,0,-1.5708,0
1.01,9.87638,0,6.04754e-16,0,0,0,0,-1.5708,0,6.18435e-27,0,-9141.35,9141.25,303.185,0.45847,0.0328979,6.12323e-17,1e-09,9.97416,1,6.12323e-17,1,0,-1,0,-1.63312e+16,6.12323e-17,-0,-1,0,1,-0,1,0,6.12323e-17,6.12294e-27,0,9.97416,0,-1.5708,0
1.02,9.97416,0,6.10741e-16,0,0,0,0,-1.5708,0,6.24558e-27,0,-9141.25,9141.15,303.186,0.458476,0.0332204,6.12323e-17,1e-09,10.0719,1,6.12323e-17,1,0,-1,0,-1.63312e+16,6.12323e-17,-0,-1,0,1,-0,1,0,6.12323e-17,6.12284e-27,0,10.0719,0,-1.5708,0
1.03,10.0719,0,6.16729e-16,0,0,0,0,-1.5708,0,6.30681e-27,0,-9141.15,9141.05,303.186,0.458482,0.0335429,6.12323e-17,1e-09,10.1697,1,6.12323e-17,1,0,-1,0,-1.63312e+16,6.12323e-17,-0,-1,0,1,-0,1,0,6.12323e-17,6.12284e-27,0,10.1697,0,-1.5708,0
1.04,10.1697,0,6.22717e-16,0,0,0,0,-1.5708,0,6.36804e-27,0,-9141.05,9140.95,303.187,0.458487,0.0338653,6.12323e-17,1e-09,10.2675,1,6.12323e-17,1,0,-1,0,-1.63312e+16,6.12323e-17,-0,-1,0,1,-0,1,0,6.12323e-17,6.12284e-27,0,10.2675,0,-1.5708,0
1.05,10.2675,0,6.28704e-16,0,0,0,0,-1.5708,0,6.42927e-27,0,-9140.95,9140.85,303.187,0.458493,0.0341878,6.12323e-17,1e-09,10.3653,1,6.12323e-17,1,0,-1,0,-1.63312e+16,6.12323e-17,-0,-1,0,1,-0,1,0,6.12323e-17,6.12284e-27,0,10.3653,0,-1.5708,0
1.06,10.3653,0,6.34692e-16,0,0,0,0,-1.5708,0,6.4905e-27,0,-9140.85,9140.74,303.188,0.458499,0.0345103,6.12323e-17,1e-09,10.4631,1,6.12323e-17,1,0,-1,0,-1.63312e+16,6.12323e-17,-0,-1,0,1,-0,1,0,6.12323e-17,6.12294e-27,0,10.4631,0,-1.5708,0
1.07,10.4631,0,6.4068e-16,0,0,0,0,-1.5708,0,6.55172e-27,0,-9140.74,9140.64,303.188,0.458505,0.0348328,6.12323e-17,1e-09,10.5609,1,6.12323e-17,1,0,-1,0,-1.63312e+16,6.12323e-17,-0,-1,0,1,-0,1,0,6.12323e-17,6.12294e-27,0,10.5609,0,-1.5708,0
1.08,10.5609,0,6.46667e-16,0,0,0,0,-1.5708,0,6.61295e-27,0,-9140.64,9140.53,303.188,0.45851,0.0351552,6.12323e-17,1e-09,10.6587,1,6.12323e-17,1,0,-1,0,-1.63312e+16,6.12323e-17,-0,-1,0,1,-0,1,0,6.12323e-17,6.12304e-27,0,10.6587,0,-1.5708,0
1.09,10.6587,0,6.52655e-16,0,0,0,0,-1.5708,0,6.67418e-27,0,-9140.53,9140.43,303.189,0.458516,0.0354777,6.12323e-17,1e-09,10.7564,1,6.12323e-17,1,0,-1,0,-1.63312e+16,6.12323e-17,-0,-1,0,1,-0,1,0,6.12323e-17,6.12294e-27,0,10.7564,0,-1.5708,0
1.1,10.7564,0,6.58643e-16,0,0,0,0,-1.5708,0,6.73541e-27,0,-9140.43,9140.32,303.189,0.458522,0.0358002,6.12323e-17,1e-09,10.8542,1,6.12323e-17,1,0,-1,0,-1.63312e+16,6.12323e-17,-0,-1,0,1,-0,1,0,6.12323e-17,6.12304e-27,0,10.8542,0,-1.5708,0
1.11,10.8542,0,6.6463e-16,0,0,0,0,-1.5708,0,6.79664e-27,0,-9140.32,9140.21,303.19,0.458528,0.0361227,6.12323e-17,1e-09,10.952,1,6.12323e-17,1,0,-1,0,-1.63312e+16,6.12323e-17,-0,-1,0,1,-0,1,0,6.12323e-17,6.12304e-27,0,10.952,0,-1.5708,0
1.12,10.952,0,6.70618e-16,0,0,0,0,-1.5708,0,6.85787e-27,0,-9140.21,9140.1,303.19,0.458534,0.0364451,6.12323e-17,1e-09,11.0498,1,6.12323e-17,1,0,-1,0,-1.63312e+16,6.12323e-17,-0,-1,0,1,-0,1,0,6.12323e-17,6.12304e-27,0,11.0498,0,-1.5708,0
1.13,11.0498,0,6.76606e-16,0,0,0,0,-1.5708,0,6.9191e-27,0,-9140.1,9139.99,303.191,0.458541,0.0367676,6.12323e-17,1e-09,11.1476,1,6.12323e-17,1,0,-1,0,-1.63312e+16,6.12323e-17,-0,-1,0,1,-0,1,0,6.12323e-17,6.12314e-27,0,11.1476,0,-1.5708,0
1.14,11.1476,0,6.82593e-16,0,0,0,0,-1.5708,0,6.98033e-27,0,-9139.99,9139.88,303.191,0.458547,0.0370901,6.12323e-17,1e-09,11.2454,1,6.12323e-17,1,0,-1,0,-1.63312e+16,6.12323e-17,-0,-1,0,1,-0,1,0,6.12323e-17,6.12314e-27,0,11.2454,0,-1.5708,0
1.15,11.2454,0,6.88581e-16,0,0,0,0,-1.5708,0,7.04156e-27,0,-9139.88,9139.76,303.192,0.458553,0.0374125,6.12323e-17,1e-09,11.3432,1,6.12323e-17,1,0,-1,0,-1.63312e+16,6.12323e-17,-0,-1,0,1,-0,1,0,6.12323e-17,6.12304e-27,0,11.3432,0,-1.5708,0
1.16,11.3432,0,6.94569e-16,0,0,0,0,-1.5708,0,7.1028e-27,0,-9139.76,9139.65,303.192,0.458559,0.037735,6.12323e-17,1e-09,11.441,1,6.12323e-17,1,0,-1,0,-1.63312e+16,6.12323e-17,-0,-1,0,1,-0,1,0,6.12323e-17,6.12294e-27,0,11.441,0,-1.5708,0
1.17,11.441,0,7.00556e-16,0,0,0,0,-1.5708,0,7.16403e-27,0,-9139.65,9139.53,303.193,0.458566,0.0380574,6.12323e-17,1e-09,11.5387,1,6.12323e-17,1,0,-1,0,-1.63312e+16,6.12323e-17,-0,-1,0,1,-0,1,0,6.12323e-17,6.12294e-27,0,11.5387,0,-1.5708,0
1.18,11.5387,0,7.06544e-16,0,0,0,0,-1.5708,0,7.22526e-27,0,-9139.53,9139.42,303.193,0.458572,0.0383799,6.12323e-17,1e-09,11.6365,1,6.12323e-17,1,0,-1,0,-1.63312e+16,6.12323e-17,-0,-1,0,1,-0,1,0,6.12323e-17,6.12294e-27,0,11.6365,0,-1.5708,0
1.19,11.6365,0,7.12532e-16,0,0,0,0,-1.5708,0,7.28648e-27,0,-9139.42,9139.3,303.194,0.458579,0.0387023,6.12323e-17,1e-09,11.7343,1,6.12323e-17,1,0,-1,0,-1.63312e+16,6.12323e-17,-0,-1,0,1,-0,1,0,6.12323e-17,6.12294e-27,0,11.7343,0,-1.5708,0
1.2,11.7343,0,7.18519e-16,0,0,0,0,-1.5708,0,7.34771e-27,0,-9139.3,9139.18,303.194,0.458585,0.0390248,6.12323e-17,1e-09,11.8321,1,6.12323e-17,1,0,-1,0,-1.63312e+16,6.12323e-17,-0,-1,0,1,-0,1,0,6.12323e-17,6.12284e-27,0,11.8321,0,-1.5708,0
1.21,11.8321,0,7.24507e-16,0,0,0,0,-1.5708,0,7.40894e-27,0,-9139.18,9139.06,303.195,0.458592,0.0393473,6.12323e-17,1e-09,11.9299,1,6.12323e-17,1,0,-1,0,-1.63312e+16,6.12323e-17,-0,-1,0,1,-0,1,0,6.12323e-17,6.12284e-27,0,11.9299,0,-1.5708,0
1.22,11.9299,0,7.30495e-16,0,0,0,0,-1.5708,0,7.47017e-27,0,-9139.06,9138.94,303.195,0.458598,0.0396697,6.12323e-17,1e-09,12.0277,1,6.12323e-17,1,0,-1,0,-1.63312e+16,6.12323e-17,-0,-1,0,1,-0,1,0,6.12323e-17,6.12284e-27,0,12.0277,0,-1.5708,0
1.23,12.0277,0,7.36482e-16,0,0,0,0,-1.5708,0,7.5314e-27,0,-9138.94,9138.82,303.196,0.458605,0.0399922,6.12323e-17,1e-09,12.1255,1,6.12323e-17,1,0,-1,0,-1.63312e+16,6.12323e-17,-0,-1,0,1,-0,1,0,6.12323e-17,6.12284e-27,0,12.1255,0,-1.5708,0
1.24,12.1255,0,7.4247e-16,0,0,0,0,-1.5708,0,7.59263e-27,0,-9138.82,9138.7,303.196,0.458612,0.0403146,6.12323e-17,1e-09,12.2232,1,6.12323e-17,1,0,-1,0,-1.63312e+16,6.12323e-17,-0,-1,0,1,-0,1,0,6.12323e-17,6.12274e-27,0,12.2232,0,-1.5708,0
1.25,12.2232,0,7.48458e-16,0,0,0,0,-1.5708,0,7.65386e-27,0,-9138.7,9138.58,303.197,0.458619,0.0406371,6.12323e-17,1e-09,12.321,1,6.12323e-17,1,0,-1,0,-1.63312e+16,6.12323e-17,-0,-1,0,1,-0,1,0,6.12323e-17,6.12284e-27,0,12.321,0,-1.5708,0
1.26,12.321,0,7.54445e-16,0,0,0,0,-1.5708,0,7.71509e-27,0,-9138.58,9138.46,303.197,0.458625,0.0409595,6.12323e-17,1e-09,12.4188,1,6.12323e-17,1,0,-1,0,-1.63312e+16,6.12323e-17,-0,-1,0,1,-0,1,0,6.12323e-17,6.12284e-27,0,12.4188,0,-1.5708,0
1.27,12.4188,0,7.60433e-16,0,0,0,0,-1.5708,0,7.77631e-27,0,-9138.46,9138.33,303.198,0.458632,0.0412819,6.12323e-17,1e-09,12.5166,1,6.12323e-17,1,0,-1,0,-1.63312e+16,6.12323e-17,-0,-1,0,1,-0,1,0,6.12323e-17,6.12284e-27,0,12.5166,0,-1.5708,0
1.28,12.5166,0,7.66421e-16,0,0,0,0,-1.5708,0,7.83754e-27,0,-9138.33,9138.21,303.198,0.458639,0.0416044,6.12323e-17,1e-09,12.6144,1,6.12323e-17,1,0,-1,0,-1.63312e+16,6.12323e-17,-0,-1,0,1,-0,1,0,6.12323e-17,6.12284e-27,0,12.6144,0,-1.5708,0
1.29,12.6144,0,7.72408e-16,0,0,0,0,-1.5708,0,7.89877e-27,0,-9138.21,9138.08,303.199,0.458646,0.0419268,6.12323e-17,1e-09,12.7122,1,6.12323e-17,1,0,-1,0,-1.63312e+16,6.12323e-17,-0,-1,0,1,-0,1,0,6.12323e-17,6.12274e-27,0,12.7122,0,-1.5708,0
1.3,12.7122,0,7.78396e-16,0,0,0,0,-1.5708,0,7.96e-27,0,-9138.08,9137.95,303.2,0.458653,0.0422493,6.12323e-17,1e-09,12.81,1,6.12323e-17,1,0,-1,0,-1.63312e+16,6.12323e-17,-0,-1,0,1,-0,1,0,6.12323e-17,6.12274e-27,0,12.81,0,-1.5708,0
1.31,12.81,0,7.84384e-16,0,0,0,0,-1.5708,0,8.02123e-27,0,-9137.95,9137.82,303.2,0.458661,0.0425717,6.12323e-17,1e-09,12.9077,1,6.12323e-17,1,0,-1,0,-1.63312e+16,6.12323e-17,-0,-1,0,1,-0,1,0,6.12323e-17,6.12274e-27,0,12.9077,0,-1.5708,0
1.32,12.9077,0,7.90371e-16,0,0,0,0,-1.5708,0,8.08245e-27,0,-9137.82,9137.69,303.201,0.458668,0.0428941,6.12323e-17,1e-09,13.0055,1,6.12323e-17,1,0,-1,0,-1.63312e+16,6.12323e-17,-0,-1,0,1,-0,1,0,6.12323e-17,6.12274e-27,0,13.0055,0,-1.5708,0
1.33,13.0055,0,7.96359e-16,0,0,0,0,-1.5708,0,8.14368e-27,0,-9137.69,9137.56,303.201,0.458675,0.0432166,6.12323e-17,1e-09,13.1033,1,6.12323e-17,1,0,-1,0,-1.63312e+16,6.12323e-17,-0,-1,0,1,-0,1,0,6.12323e-17,6.12284e-27,0,13.1033,0,-1.5708,0
1.34,13.1033,0,8.02347e-16,0,0,0,0,-1.5708,0,8.20491e-27,0,-9137.56,9137.43,303.202,0.458682,0.043539,6.12323e-17,1e-09,13.2011,1,6.12323e-17,1,0,-1,0,-1.63312e+16,6.12323e-17,-0,-1,0,1,-0,1,0,6.12323e-17,6.12274e-27,0,13.2011,0,-1.5708,0
1.35,13.2011,0,8.08334e-16,0,0,0,0,-1.5708,0,8.26614e-27,0,-9137.43,9137.3,303.202,0.45869,0.0438614,6.12323e-17,1e-09,13.2989,1,6.12323e-17,1,0,-1,0,-1.63312e+16,6.12323e-17,-0,-1,0,1,-0,1,0,6.12323e-17,6.12274e-27,0,13.2989,0,-1.5708,0
1.36,13.2989,0,8.14322e-16,0,0,0,0,-1.5708,0,8.32737e-27,0,-9137.3,9137.16,303.203,0.458697,0.0441839,6.12323e-17,1e-09,13.3967,1,6.12323e-17,1,0,-1,0,-1.63312e+16,6.12323e-17,-0,-1,0,1,-0,1,0,6.12323e-17,6.12284e-27,0,13.3967,0,-1.5708,0
1.37,13.3967,0,8.2031e-16,0,0,0,0,-1.5708,0,8.38859e-27,0,-9137.16,9137.03,303.204,0.458704,0.0445063,6.12323e-17,1e-09,13.4945,1,6.12323e-17,1,0,-1,0,-1.63312e+16,6.12323e-17,-0,-1,0,1,-0,1,0,6.12323e-17,6.12274e-27,0,13.4945,0,-1.5708,0
1.38,13.4945,0,8.26297e-16,0,0,0,0,-1.5708,0,8.44982e-27,0,-9137.03,9136.89,303.204,0.458712,0.0448287,6.12323e-17,1e-09,13.5922,1,6.12323e-17,1,0,-1,0,-1.63312e+16,6.12323e-17,-0,-1,0,1,-0,1,0,6.12323e-17,6.12265e-27,0,13.5922,0,-1.5708,0
1.39,13.5922,0,8.32285e-16,0,0,0,0,-1.5708,0,8.51105e-27,0,-9136.89,9136.76,303.205,0.45872,0.0451511,6.12323e-17,1e-09,13.69,1,6.12323e-17,1,0,-1,0,-1.63312e+16,6.12323e-17,-0,-1,0,1,-0,1,0,6.12323e-17,6.12274e-27,0,13.69,0,-1.5708,0
1.4,13.69,0,8.38273e-16,0,0,0,0,-1.5708,0,8.57228e-27,0,-9136.76,9136.62,303.205,0.458727,0.0454735,6.12323e-17,1e-09,13.7878,1,6.12323e-17,1,0,-1,0,-1.63312e+16,6.12323e-17,-0,-1,0,1,-0,1,0,6.12323e-17,6.12265e-27,0,13.7878,0,-1.5708,0
1.41,13.7878,0,8.4426e-16,0,0,0,0,-1.5708,0,8.6335e-27,0,-9136.62,9136.48,303.206,0.458735,0.045796,6.12323e-17,1e-09,13.8856,1,6.12323e-17,1,0,-1,0,-1.63312e+16,6.12323e-17,-0,-1,0,1,-0,1,0,6.12323e-17,6.12265e-27,0,13.8856,0,-1.5708,0
1.42,13.8856,0,8.50248e-16,0,0,0,0,-1.5708,0,8.69473e-27,0,-9136.48,9136.34,303.206,0.458743,0.0461184,6.12323e-17,1e-09,13.9834,1,6.12323e-17,1,0,-1,0,-1.63312e+16,6.12323e-17,-0,-1,0,1,-0,1,0,6.12323e-17,6.12274e-27,0,13.9834,0,-1.5708,0
1.43,13.9834,0,8.56236e-16,0,0,0,0,-1.5708,0,8.75596e-27,0,-9136.34,9136.2,303.207,0.45875,0.0464408,6.12323e-17,1e-09,14.0812,1,6.12323e-17,1,0,-1,0,-1.63312e+16,6.12323e-17,-0,-1,0,1,-0,1,0,6.12323e-17,6.12274e-27,0,14.0812,0,-1.5708,0
1.44,14.0812,0,8.62223e-16,0,0,0,0,-1.5708,0,8.81718e-27,0,-9136.2,9136.06,303.208,0.458758,0.0467632,6.12323e-17,1e-09,14.179,1,6.12323e-17,1,0,-1,0,-1.63312e+16,6.12323e-17,-0,-1,0,1,-0,1,0,6.12323e-17,6.12274e-27,0,14.179,0,-1.5708,0
1.45,14.179,0,8.68211e-16,0,0,0,0,-1.5708,0,8.87841e-27,0,-9136.06,9135.92,303.208,0.458766,0.0470856,6.12323e-17,1e-09,14.2767,1,6.12323e-17,1,0,-1,0,-1.63312e+16,6.12323e-17,-0,-1,0,1,-0,1,0,6.12323e-17,6.12274e-27,0,14.2767,0,-1.5708,0
1.46,14.2767,0,8.74199e-16,0,0,0,0,-1.5708,0,8.93964e-27,0,-9135.92,9135.78,303.209,0.458774,0.047408,6.12323e-17,1e-09,14.3745,1,6.12323e-17,1,0,-1,0,-1.63312e+16,6.12323e-17,-0,-1,0,1,-0,1,0,6.12323e-17,6.12284e-27,0,14.3745,0,-1.5708,0
1.47,14.3745,0,8.80186e-16,0,0,0,0,-1.5708,0,9.00087e-27,0,-9135.78,9135.63,303.21,0.458782,0.0477304,6.12323e-17,1e-09,14.4723,1,6.12323e-17,1,0,-1,0,-1.63312e+16,6.12323e-17,-0,-1,0,1,-0,1,0,6.12323e-17,6.12284e-27,0,14.4723,0,-1.5708,0
1.48,14.4723,0,8.86174e-16,0,0,0,0,-1.5708,0,9.0621e-27,0,-9135.63,9135.49,303.21,0.45879,0.0480528,6.12323e-17,1e-09,14.5701,1,6.12323e-17,1,0,-1,0,-1.63312e+16,6.12323e-17,-0,-1,0,1,-0,1,0,6.12323e-17,6.12294e-27,0,14.5701,0,-1.5708,0
1.49,14.5701,0,8.92162e-16,0,0,0,0,-1.5708,0,9.12332e-27,0,-9135.49,9135.34,303.211,0.458798,0.0483752,6.12323e-17,1e-09,14.6679,1,6.12323e-17,1,0,-1,0,-1.63312e+16,6.12323e-17,-0,-1,0,1,-0,1,0,6.12323e-17,6.12274e-27,0,14.6679,0,-1.5708,0
1.5,14.6679,0,8.98149e-16,0,0,0,0,-1.5708,0,9.18455e-27,0,-9135.34,9135.19,303.211,0.458806,0.0486976,6.12323e-17,1e-09,14.7657,1,6.12323e-17,1,0,-1,0,-1.63312e+16,6.12323e-17,-0,-1,0,1,-0,1,0,6.12323e-17,6.12274e-27,0,14.7657,0,-1.5708,0
1.51,14.7657,0,9.04137e-16,0,0,0,0,-1.5708,0,9.24578e-27,0,-9135.19,9135.05,303.212,0.458814,0.04902,6.12323e-17,1e-09,14.8635,1,6.12323e-17,1,0,-1,0,-1.63312e+16,6.12323e-17,-0,-1,0,1,-0,1,0,6.12323e-17,6.12274e-27,0,14.8635,0,-1.5708,0
1.52,14.8635,0,9.10125e-16,0,0,0,0,-1.5708,0,9.30701e-27,0,-9135.05,9134.9,303.213,0.458823,0.0493424,6.12323e-17,1e-09,14.9613,1,6.12323e-17,1,0,-1,0,-1.63312e+16,6.12323e-17,-0,-1,0,1,-0,1,0,6.12323e-17,6.12255e-27,0,14.9613,0,-1.5708,0
1.53,14.9613,0,9.16112e-16,0,0,0,0,-1.5708,0,9.36823e-27,0,-9134.9,9134.75,303.213,0.458831,0.0496648,6.12323e-17,1e-09,15.059,1,6.12323e-17,1,0,-1,0,-1.63312e+16,6.12323e-17,-0,-1,0,1,-0,1,0,6.12323e-17,6.12274e-27,0,15.059,0,-1.5708,0
1.54,15.059,0,9.221e-16,0,0,0,0,-1.5708,0,9.42946e-27,0,-9134.75,9134.59,303.214,0.458839,0.0499872,6.12323e-17,1e-09,15.1568,1,6.12323e-17,1,0,-1,0,-1.63312e+16,6.12323e-17,-0,-1,0,1,-0,1,0,6.12323e-17,6.12274e-27,0,15.1568,0,-1.5708,0
1.55,15.1568,0,9.28088e-16,0,0,0,0,-1.5708,0,9.49069e-27,0,-9134.59,9134.44,303.215,0.458848,0.0503096,6.12323e-17,1e-09,15.2546,1,6.12323e-17,1,0,-1,0,-1.63312e+16,6.12323e-17,-0,-1,0,1,-0,1,0,6.12323e-17,6.12274e-27,0,15.2546,0,-1.5708,0
1.56,15.2546,0,9.34076e-16,0,0,0,0,-1.5708,0,9.55191e-27,0,-9134.44,9134.29,303.215,0.458856,0.050632,6.12323e-17,1e-09,15.3524,1,6.12323e-17,1,0,-1,0,-1.63312e+16,6.12323e-17,-0,-1,0,1,-0,1,0,6.12323e-17,6.12274e-27,0,15.3524,0,-1.5708,0
1.57,15.3524,0,9.40063e-16,0,0,0,0,-1.5708,0,9.61314e-27,0,-9134.29,9134.14,303.216,0.458865,0.0509544,6.12323e-17,1e-09,15.4502,1,6.12323e-17,1,0,-1,0,-1.63312e+16,6.12323e-17,-0,-1,0,1,-0,1,0,6.12323e-17,6.12274e-27,0,15.4502,0,-1.5708,0
1.58,15.4502,0,9.46051e-16,0,0,0,0,-1.5708,0,9.67437e-27,0,-9134.14,9133.98,303.217,0.458873,0.0512768,6.12323e-17,1e-09,15.548,1,6.12323e-17,1,0,-1,0,-1.63312e+16,6.12323e-17,-0,-1,0,1,-0,1,0,6.12323e-17,6.12294e-27,0,15.548,0,-1.5708,0
1.59,15.548,0,9.52039e-16,0,0,0,0,-1.5708,0,9.7356e-27,0,-9133.98,9133.82,303.217,0.458882,0.0515991,6.12323e-17,1e-09,15.6458,1,6.12323e-17,1,0,-1,0,-1.63312e+16,6.12323e-17,-0,-1,0,1,-0,1,0,6.12323e-17,6.12294e-27,0,15.6458,0,-1.5708,0
1.6,15.6458,0,9.58026e-16,0,0,0,0,-1.5708,0,9.79683e-27,0,-9133.82,9133.67,303.218,0.458891,0.0519215,6.12323e-17,1e-09,15.7435,1,6.12323e-17,1,0,-1,0,-1.63312e+16,6.12323e-17,-0,-1,0,1,-0,1,0,6.12323e-17,6.12294e-27,0,15.7435,0,-1.5708,0
1.61,15.7435,0,9.64014e-16,0,0,0,0,-1.5708,0,9.85806e-27,0,-9133.67,9133.51,303.219,0.458899,0.0522439,6.12323e-17,1e-09,15.8413,1,6.12323e-17,1,0,-1,0,-1.63312e+16,6.12323e-17,-0,-1,0,1,-0,1,0,6.12323e-17,6.12294e-27,0,15.8413,0,-1.5708,0
1.62,15.8413,0,9.70002e-16,0,0,0,0,-1.5708,0,9.91929e-27,0,-9133.51,9133.35,303.219,0.458908,0.0525663,6.12323e-17,1e-09,15.9391,1,6.12323e-17,1,0,-1,0,-1.63312e+16,6.12323e-17,-0,-1,0,1,-0,1,0,6.12323e-17,6.12294e-27,0,15.9391,0,-1.5708,0
1.63,15.9391,0,9.75989e-16,0,0,0,0,-1.5708,0,9.98052e-27,0,-9133.35,9133.19,303.22,0.458917,0.0528887,6.12323e-17,1e-09,16.0369,1,6.12323e-17,1,0,-1,0,-1.63312e+16,6.12323e-17,-0,-1,0,1,-0,1,0,6.12323e-17,6.12314e-27,0,16.0369,0,-1.5708,0
1.64,16.0369,0,9.81977e-16,0,0,0,0,-1.5708,0,1.00417e-26,0,-9133.19,9133.03,303.221,0.458926,0.053211,6.12323e-17,1e-09,16.1347,1,6.12323e-17,1,0,-1,0,-1.63312e+16,6.12323e-17,-0,-1,0,1,-0,1,0,6.12323e-17,6.12334e-27,0,16.1347,0,-1.5708,0
1.65,16.1347,0,9.87965e-16,0,0,0,0,-1.5708,0,1.0103e-26,0,-9133.03,9132.87,303.221,0.458935,0.0535334,6.12323e-17,1e-09,16.2325,1,6.12323e-17,1,0,-1,0,-1.63312e+16,6.12323e-17,-0,-1,0,1,-0,1,0,6.12323e-17,6.12334e-27,0,16.2325,0,-1.5708,0
1.66,16.2325,0,9.93952e-16,0,0,0,0,-1.5708,0,1.01642e-26,0,-9132.87,9132.71,303.222,0.458944,0.0538558,6.12323e-17,1e-09,16.3303,1,6.12323e-17,1,0,-1,0,-1.63312e+16,6.12323e-17,-0,-1,0,1,-0,1,0,6.12323e-17,6.12314e-27,0,16.3303,0,-1.5708,0
1.67,16.3303,0,9.9994e-16,0,0,0,0,-1.5708,0,1.02254e-26,0,-9132.71,9132.54,303.223,0.458953,0.0541781,6.12323e-17,1e-09,16.428,1,6.12323e-17,1,0,-1,0,-1.63312e+16,6.12323e-17,-0,-1,0,1,-0,1,0,6.12323e-17,6.12334e-27,0,16.428,0,-1.5708,0
1.68,16.428,0,1.00593e-15,0,0,0,0,-1.5708,0,1.02867e-26,0,-9132.54,9132.38,303.224,0.458962,0.0545005,6.12323e-17,1e-09,16.5258,1,6.12323e-17,1,0,-1,0,-1.63312e+16,6.12323e-17,-0,-1,0,1,-0,1,0,6.12323e-17,6.12314e-27,0,16.5258,0,-1.5708,0
1.69,16.5258,0,1.01192e-15,0,0,0,0,-1.5708,0,1.03479e-26,0,-9132.38,9132.21,303.224,0.458971,0.0548228,6.12323e-17,1e-09,16.6236,1,6.12323e-17,1,0,-1,0,-1.63312e+16,6.12323e-17,-0,-1,0,1,-0,1,0,6.12323e-17,6.12314e-27,0,16.6236,0,-1.5708,0
1.7,16.6236,0,1.0179e-15,0,0,0,0,-1.5708,0,1.04091e-26,0,-9132.21,9132.04,303.225,0.458981,0.0551452,6.12323e-17,1e-09,16.7214,1,6.12323e-17,1,0,-1,0,-1.63312e+16,6.12323e-17,-0,-1,0,1,-0,1,0,6.12323e-17,6.12314e-27,0,16.7214,0,-1.5708,0
1.71,16.7214,0,1.02389e-15,0,0,0,0,-1.5708,0,1.04704e-26,0,-9132.04,9131.88,303.226,0.45899,0.0554676,6.12323e-17,1e-09,16.8192,1,6.12323e-17,1,0,-1,0,-1.63312e+16,6.12323e-17,-0,-1,0,1,-0,1,0,6.12323e-17,6.12294e-27,0,16.8192,0,-1.5708,0
1.72,16.8192,0,1.02988e-15,0,0,0,0,-1.5708,0,1.05316e-26,0,-9131.88,9131.71,303.226,0.458999,0.0557899,6.12323e-17,1e-09,16.917,1,6.12323e-17,1,0,-1,0,-1.63312e+16,6.12323e-17,-0,-1,0,1,-0,1,0,6.12323e-17,6.12314e-27,0,16.917,0,-1.5708,0
1.73,16.917,0,1.03587e-15,0,0,0,0,-1.5708,0,1.05928e-26,0,-9131.71,9131.54,303.227,0.459009,0.0561123,6.12323e-17,1e-09,17.0148,1,6.12323e-17,1,0,-1,0,-1.63312e+16,6.12323e-17,-0,-1,0,1,-0,1,0,6.12323e-17,6.12314e-27,0,17.0148,0,-1.5708,0
1.74,17.0148,0,1.04185e-15,0,0,0,0,-1.5708,0,1.06541e-26,0,-9131.54,9131.37,303.228,0.459018,0.0564346,6.12323e-17,1e-09,17.1125,1,6.12323e-17,1,0,-1,0,-1.63312e+16,6.12323e-17,-0,-1,0,1,-0,1,0,6.12323e-17,6.12314e-27,0,17.1125,0,-1.5708,0
1.75,17.1125,0,1.04784e-15,0,0,0,0,-1.5708,0,1.07153e-26,0,-9131.37,9131.2,303.229,0.459028,0.056757,6.12323e-17,1e-09,17.2103,1,6.12323e-17,1,0,-1,0,-1.63312e+16,6.12323e-17,-0,-1,0,1,-0,1,0,6.12323e-17,6.12314e-27,0,17.2103,0,-1.5708,0
1.76,17.2103,0,1.05383e-15,0,0,0,0,-1.5708,0,1.07765e-26,0,-9131.2,9131.02,303.229,0.459037,0.0570793,6.12323e-17,1e-09,17.3081,1,6.12323e-17,1,0,-1,0,-1.63312e+16,6.12323e-17,-0,-1,0,1,-0,1,0,6.12323e-17,6.12294e-27,0,17.3081,0,-1.5708,0
1.77,17.3081,0,1.05982e-15,0,0,0,0,-1.5708,0,1.08378e-26,0,-9131.02,9130.85,303.23,0.459047,0.0574016,6.12323e-17,1e-09,17.4059,1,6.12323e-17,1,0,-1,0,-1.63312e+16,6.12323e-17,-0,-1,0,1,-0,1,0,6.12323e-17,6.12294e-27,0,17.4059,0,-1.5708,0
1.78,17.4059,0,1.0658e-15,0,0,0,0,-1.5708,0,1.0899e-26,0,-9130.85,9130.68,303.231,0.459057,0.057724,6.12323e-17,1e-09,17.5037,1,6.12323e-17,1,0,-1,0,-1.63312e+16,6.12323e-17,-0,-1,0,1,-0,1,0,6.12323e-17,6.12314e-27,0,17.5037,0,-1.5708,0
1.79,17.5037,0,1.07179e-15,0,0,0,0,-1.5708,0,1.09602e-26,0,-9130.68,9130.5,303.232,0.459066,0.0580463,6.12323e-17,1e-09,17.6015,1,6.12323e-17,1,0,-1,0,-1.63312e+16,6.12323e-17,-0,-1,0,1,-0,1,0,6.12323e-17,6.12314e-27,0,17.6015,0,-1.5708,0
1.8,17.6015,0,1.07778e-15,0,0,0,0,-1.5708,0,1.10214e-26,0,-9130.5,9130.32,303.232,0.459076,0.0583687,6.12323e-17,1e-09,17.6993,1,6.12323e-17,1,0,-1,0,-1.63312e+16,6.12323e-17,-0,-1,0,1,-0,1,0,6.12323e-17,6.12314e-27,0,17.6993,0,-1.5708,0
1.81,17.6993,0,1.08377e-15,0,0,0,0,-1.5708,0,1.10827e-26,0,-9130.32,9130.15,303.233,0.459086,0.058691,6.12323e-17,1e-09,17.7971,1,6.12323e-17,1,0,-1,0,-1.63312e+16,6.12323e-17,-0,-1,0,1,-0,1,0,6.12323e-17,6.12294e-27,0,17.7971,0,-1.5708,0
1.82,17.7971,0,1.08976e-15,0,0,0,0,-1.5708,0,1.11439e-26,0,-9130.15,9129.97,303.234,0.459096,0.0590133,6.12323e-17,1e-09,17.8948,1,6.12323e-17,1,0,-1,0,-1.63312e+16,6.12323e-17,-0,-1,0,1,-0,1,0,6.12323e-17,6.12294e-27,0,17.8948,0,-1.5708,0
1.83,17.8948,0,1.09574e-15,0,0,0,0,-1.5708,0,1.12051e-26,0,-9129.97,9129.79,303.235,0.459106,0.0593356,6.12323e-17,1e-09,17.9926,1,6.12323e-17,1,0,-1,0,-1.63312e+16,6.12323e-17,-0,-1,0,1,-0,1,0,6.12323e-17,6.12294e-27,0,17.9926,0,-1.5708,0
1.84,17.9926,0,1.10173e-15,0,0,0,0,-1.5708,0,1.12664e-26,0,-9129.79,9129.61,303.236,0.459116,0.059658,6.12323e-17,1e-09,18.0904,1,6.12323e-17,1,0,-1,0,-1.63312e+16,6.12323e-17,-0,-1,0,1,-0,1,0,6.12323e-17,6.12274e-27,0,18.0904,0,-1.5708,0
1.85,18.0904,0,1.10772e-15,0,0,0,0,-1.5708,0,1.13276e-26,0,-9129.61,9129.43,303.236,0.459126,0.0599803,6.12323e-17,1e-09,18.1882,1,6.12323e-17,1,0,-1,0,-1.63312e+16,6.12323e-17,-0,-1,0,1,-0,1,0,6.12323e-17,6.12274e-27,0,18.1882,0,-1.5708,0
1.86,18.1882,0,1.11371e-15,0,0,0,0,-1.5708,0,1.13888e-26,0,-9129.43,9129.24,303.237,0.459136,0.0603026,6.12323e-17,1e-09,18.286,1,6.12323e-17,1,0,-1,0,-1.63312e+16,6.12323e-17,-0,-1,0,1,-0,1,0,6.12323e-17,6.12274e-27,0,18.286,0,-1.5708,0
1.87,18.286,0,1.11969e-15,0,0,0,0,-1.5708,0,1.145e-26,0,-9129.24,9129.06,303.238,0.459146,0.0606249,6.12323e-17,1e-09,18.3838,1,6.12323e-17,1,0,-1,0,-1.63312e+16,6.12323e-17,-0,-1,0,1,-0,1,0,6.12323e-17,6.12294e-27,0,18.3838,0,-1.5708,0
1.88,18.3838,0,1.12568e-15,0,0,0,0,-1.5708,0,1.15113e-26,0,-9129.06,9128.88,303.239,0.459156,0.0609472,6.12323e-17,1e-09,18.4816,1,6.12323e-17,1,0,-1,0,-1.63312e+16,6.12323e-17,-0,-1,0,1,-0,1,0,6.12323e-17,6.12294e-27,0,18.4816,0,-1.5708,0
1.89,18.4816,0,1.13167e-15,0,0,0,0,-1.5708,0,1.15725e-26,0,-9128.88,9128.69,303.239,0.459166,0.0612696,6.12323e-17,1e-09,18.5793,1,6.12323e-17,1,0,-1,0,-1.63312e+16,6.12323e-17,-0,-1,0,1,-0,1,0,6.12323e-17,6.12314e-27,0,18.5793,0,-1.5708,0
1.9,18.5793,0,1.13766e-15,0,0,0,0,-1.5708,0,1.16337e-26,0,-9128.69,9128.5,303.24,0.459177,0.0615919,6.12323e-17,1e-09,18.6771,1,6.12323e-17,1,0,-1,0,-1.63312e+16,6.12323e-17,-0,-1,0,1,-0,1,0,6.12323e-17,6.12314e-27,0,18.6771,0,-1.5708,0
1.91,18.6771,0,1.14364e-15,0,0,0,0,-1.5708,0,1.1695e-26,0,-9128.5,9128.32,303.241,0.459187,0.0619142,6.12323e-17,1e-09,18.7749,1,6.12323e-17,1,0,-1,0,-1.63312e+16,6.12323e-17,-0,-1,0,1,-0,1,0,6.12323e-17,6.12314e-27,0,18.7749,0,-1.5708,0
1.92,18.7749,0,1.14963e-15,0,0,0,0,-1.5708,0,1.17562e-26,0,-9128.32,9128.13,303.242,0.459198,0.0622365,6.12323e-17,1e-09,18.8727,1,6.12323e-17,1,0,-1,0,-1.63312e+16,6.12323e-17,-0,-1,0,1,-0,1,0,6.12323e-17,6.12314e-27,0,18.8727,0,-1.5708,0
1.93,18.8727,0,1.15562e-15,0,0,0,0,-1.5708,0,1.18174e-26,0,-9128.13,9127.94,303.243,0.459208,0.0625588,6.12323e-17,1e-09,18.9705,1,6.12323e-17,1,0,-1,0,-1.63312e+16,6.12323e-17,-0,-1,0,1,-0,1,0,6.12323e-17,6.12314e-27,0,18.9705,0,-1.5708,0
1.94,18.9705,0,1.16161e-15,0,0,0,0,-1.5708,0,1.18787e-26,0,-9127.94,9127.75,303.244,0.459219,0.0628811,6.12323e-17,1e-09,19.0683,1,6.12323e-17,1,0,-1,0,-1.63312e+16,6.12323e-17,-0,-1,0,1,-0,1,0,6.12323e-17,6.12314e-27,0,19.0683,0,-1.5708,0
1.95,19.0683,0,1.1676e-15,0,0,0,0,-1.5708,0,1.19399e-26,0,-9127.75,9127.56,303.244,0.459229,0.0632034,6.12323e-17,1e-09,19.1661,1,6.12323e-17,1,0,-1,0,-1.63312e+16,6.12323e-17,-0,-1,0,1,-0,1,0,6.12323e-17,6.12314e-27,0,19.1661,0,-1.5708,0
1.96,19.1661,0,1.17358e-15,0,0,0,0,-1.5708,0,1.20011e-26,0,-9127.56,9127.37,303.245,0.45924,0.0635257,6.12323e-17,1e-09,19.2638,1,6.12323e-17,1,0,-1,0,-1.63312e+16,6.12323e-17,-0,-1,0,1,-0,1,0,6.12323e-17,6.12314e-27,0,19.2638,0,-1.5708,0
1.97,19.2638,0,1.17957e-15,0,0,0,0,-1.5708,0,1.20624e-26,0,-9127.37,9127.17,303.246,0.459251,0.063848,6.12323e-17,1e-09,19.3616,1,6.12323e-17,1,0,-1,0,-1.63312e+16,6.12323e-17,-0,-1,0,1,-0,1,0,6.12323e-17,6.12334e-27,0,19.3616,0,-1.5708,0
1.98,19.3616,0,1.18556e-15,0,0,0,0,-1.5708,0,1.21236e-26,0,-9127.17,9126.98,303.247,0.459261,0.0641702,6.12323e-17,1e-09,19.4594,1,6.12323e-17,1,0,-1,0,-1.63312e+16,6.12323e-17,-0,-1,0,1,-0,1,0,6.12323e-17,6.12314e-27,0,19.4594,0,-1.5708,0
1.99,19.4594,0,1.19155e-15,0,0,0,0,-1.5708,0,1.21848e-26,0,-9126.98,9126.78,303.248,0.459272,0.0644925,6.12323e-17,1e-09,19.5572,1,6.12323e-17,1,0,-1,0,-1.63312e+16,6.12323e-17,-0,-1,0,1,-0,1,0,6.12323e-17,6.12334e-27,0,19.5572,0,-1.5708,0
2,19.5572,0,1.19753e-15,0,0,0,0,-1.5708,0,1.22461e-26,0,-9126.78,9126.59,303.249,0.459283,0.0648148,6.12323e-17,1e-09,19.655,1,6.12323e-17,1,0,-1,0,-1.63312e+16,6.12323e-17,-0,-1,0,1,-0,1,0,6.12323e-17,6.12334e-27,0,19.655,0,-1.5708,0
2.01,19.655,0,1.20352e-15,0,0,0,0,-1.5708,0,1.23073e-26,0,-9126.59,9126.39,303.249,0.459294,0.0651371,6.12323e-17,1e-09,19.7528,1,6.12323e-17,1,0,-1,0,-1.63312e+16,6.12323e-17,-0,-1,0,1,-0,1,0,6.12323e-17,6.12334e-27,0,19.7528,0,-1.5708,0
2.02,19.7528,0,1.20951e-15,0,0,0,0,-1.5708,0,1.23685e-26,0,-9126.39,9126.19,303.25,0.459305,0.0654594,6.12323e-17,1e-09,19.8506,1,6.12323e-17,1,0,-1,0,-1.63312e+16,6.12323e-17,-0,-1,0,1,-0,1,0,6.12323e-17,6.12334e-27,0,19.8506,0,-1.5708,0
2.03,19.8506,0,1.2155e-15,0,0,0,0,-1.5708,0,1.24298e-26,0,-9126.19,9125.99,303.251,0.459316,0.0657816,6.12323e-17,1e-09,19.9484,1,6.12323e-17,1,0,-1,0,-1.63312e+16,6.12323e-17,-0,-1,0,1,-0,1,0,6.12323e-17,6.12334e-27,0,19.9484,0,-1.5708,0
2.04,19.9484,0,1.22148e-15,0,0,0,0,-1.5708,0,1.2491e-26,0,-9125.99,9125.79,303.252,0.459327,0.0661039,6.12323e-17,1e-09,20.0461,1,6.12323e-17,1,0,-1,0,-1.63312e+16,6.12323e-17,-0,-1,0,1,-0,1,0,6.12323e-17,6.12334e-27,0,20.0461,0,-1.5708,0
2.05,20.0461,0,1.22747e-15,0,0,0,0,-1.5708,0,1.25522e-26,0,-9125.79,9125.59,303.253,0.459338,0.0664262,6.12323e-17,1e-09,20.1439,1,6.12323e-17,1,0,-1,0,-1.63312e+16,6.12323e-17,-0,-1,0,1,-0,1,0,6.12323e-17,6.12334e-27,0,20.1439,0,-1.5708,0
2.06,20.1439,0,1.23346e-15,0,0,0,0,-1.5708,0,1.26135e-26,0,-9125.59,9125.39,303.254,0.459349,0.0667485,6.12323e-17,1e-09,20.2417,1,6.12323e-17,1,0,-1,0,-1.63312e+16,6.12323e-17,-0,-1,0,1,-0,1,0,6.12323e-17,6.12334e-27,0,20.2417,0,-1.5708,0
2.07,20.2417,0,1.23945e-15,0,0,0,0,-1.5708,0,1.26747e-26,0,-9125.39,9125.19,303.255,0.459361,0.0670707,6.12323e-17,1e-09,20.3395,1,6.12323e-17,1,0,-1,0,-1.63312e+16,6.12323e-17,-0,-1,0,1,-0,1,0,6.12323e-17,6.12334e-27,0,20.3395,0,-1.5708,0
2.08,20.3395,0,1.24544e-15,0,0,0,0,-1.5708,0,1.27359e-26,0,-9125.19,9124.98,303.255,0.459372,0.067393,6.12323e-17,1e-09,20.4373,1,6.12323e-17,1,0,-1,0,-1.63312e+16,6.12323e-17,-0,-1,0,1,-0,1,0,6.12323e-17,6.12353e-27,0,20.4373,0,-1.5708,0
2.09,20.4373,0,1.25142e-15,0,0,0,0,-1.5708,0,1.27972e-26,0,-9124.98,9124.78,303.256,0.459383,0.0677152,6.12323e-17,1e-09,20.5351,1,6.12323e-17,1,0,-1,0,-1.63312e+16,6.12323e-17,-0,-1,0,1,-0,1,0,6.12323e-17,6.12334e-27,0,20.5351,0,-1.5708,0
2.1,20.5351,0,1.25741e-15,0,0,0,0,-1.5708,0,1.28584e-26,0,-9124.78,9124.57,303.257,0.459395,0.0680375,6.12323e-17,1e-09,20.6329,1,6.12323e-17,1,0,-1,0,-1.63312e+16,6.12323e-17,-0,-1,0,1,-0,1,0,6.12323e-17,6.12353e-27,0,20.6329,0,-1.5708,0
2.11,20.6329,0,1.2634e-15,0,0,0,0,-1.5708,0,1.29196e-26,0,-9124.57,9124.37,303.258,0.459406,0.0683598,6.12323e-17,1e-09,20.7306,1,6.12323e-17,1,0,-1,0,-1.63312e+16,6.12323e-17,-0,-1,0,1,-0,1,0,6.12323e-17,6.12334e-27,0,20.7306,0,-1.5708,0
2.12,20.7306,0,1.26939e-15,0,0,0,0,-1.5708,0,1.29809e-26,0,-9124.37,9124.16,303.259,0.459418,0.068682,6.12323e-17,1e-09,20.8284,1,6.12323e-17,1,0,-1,0,-1.63312e+16,6.12323e-17,-0,-1,0,1,-0,1,0,6.12323e-17,6.12334e-27,0,20.8284,0,-1.5708,0
2.13,20.8284,0,1.27537e-15,0,0,0,0,-1.5708,0,1.30421e-26,0,-9124.16,9123.95,303.26,0.459429,0.0690042,6.12323e-17,1e-09,20.9262,1,6.12323e-17,1,0,-1,0,-1.63312e+16,6.12323e-17,-0,-1,0,1,-0,1,0,6.12323e-17,6.12334e-27,0,20.9262,0,-1.5708,0
2.14,20.9262,0,1.28136e-15,0,0,0,0,-1.5708,0,1.31033e-26,0,-9123.95,9123.74,303.261,0.459441,0.0693265,6.12323e-17,1e-09,21.024,1,6.12323e-17,1,0,-1,0,-1.63312e+16,6.12323e-17,-0,-1,0,1,-0,1,0,6.12323e-17,6.12314e-27,0,21.024,0,-1.5708,0
2.15,21.024,0,1.28735e-15,0,0,0,0,-1.5708,0,1.31646e-26,0,-9123.74,9123.53,303.262,0.459452,0.0696487,6.12323e-17,1e-09,21.1218,1,6.12323e-17,1,0,-1,0,-1.63312e+16,6.12323e-17,-0,-1,0,1,-0,1,0,6.12323e-17,6.12334e-27,0,21.1218,0,-1.5708,0
2.16,21.1218,0,1.29334e-15,0,0,0,0,-1.5708,0,1.32258e-26,0,-9123.53,9123.32,303.263,0.459464,0.069971,6.12323e-17,1e-09,21.2196,1,6.12323e-17,1,0,-1,0,-1.63312e+16,6.12323e-17,-0,-1,0,1,-0,1,0,6.12323e-17,6.12314e-27,0,21.2196,0,-1.5708,0
2.17,21.2196,0,1.29932e-15,0,0,0,0,-1.5708,0,1.3287e-26,0,-9123.32,9123.11,303.264,0.459476,0.0702932,6.12323e-17,1e-09,21.3174,1,6.12323e-17,1,0,-1,0,-1.63312e+16,6.12323e-17,-0,-1,0,1,-0,1,0,6.12323e-17,6.12314e-27,0,21.3174,0,-1.5708,0
2.18,21.3174,0,1.30531e-15,0,0,0,0,-1.5708,0,1.33483e-26,0,-9123.11,9122.89,303.264,0.459488,0.0706154,6.12323e-17,1e-09,21.4152,1,6.12323e-17,1,0,-1,0,-1.63312e+16,6.12323e-17,-0,-1,0,1,-0,1,0,6.12323e-17,6.12314e-27,0,21.4152,0,-1.5708,0
2.19,21.4152,0,1.3113e-15,0,0,0,0,-1.5708,0,1.34095e-26,0,-9122.89,9122.68,303.265,0.4595,0.0709377,6.12323e-17,1e-09,21.5129,1,6.12323e-17,1,0,-1,0,-1.63312e+16,6.12323e-17,-0,-1,0,1,-0,1,0,6.12323e-17,6.12314e-27,0,21.5129,0,-1.5708,0
2.2,21.5129,0,1.31729e-15,0,0,0,0,-1.5708,0,1.34707e-26,0,-9122.68,9122.46,303.266,0.459512,0.0712599,6.12323e-17,1e-09,21.6107,1,6.12323e-17,1,0,-1,0,-1.63312e+16,6.12323e-17,-0,-1,0,1,-0,1,0,6.12323e-17,6.12314e-27,0,21.6107,0,-1.5708,0
2.21,21.6107,0,1.32328e-15,0,0,0,0,-1.5708,0,1.3532e-26,0,-9122.46,9122.25,303.267,0.459524,0.0715821,6.12323e-17,1e-09,21.7085,1,6.12323e-17,1,0,-1,0,-1.63312e+16,6.12323e-17,-0,-1,0,1,-0,1,0,6.12323e-17,6.12314e-27,0,21.7085,0,-1.5708,0
2.22,21.7085,0,1.32926e-15,0,0,0,0,-1.5708,0,1.35932e-26,0,-9122.25,9122.03,303.268,0.459536,0.0719043,6.12323e-17,1e-09,21.8063,1,6.12323e-17,1,0,-1,0,-1.63312e+16,6.12323e-17,-0,-1,0,1,-0,1,0,6.12323e-17,6.12294e-27,0,21.8063,0,-1.5708,0
2.23,21.8063,0,1.33525e-15,0,0,0,0,-1.5708,0,1.36544e-26,0,-9122.03,9121.81,303.269,0.459548,0.0722266,6.12323e-17,1e-09,21.9041,1,6.12323e-17,1,0,-1,0,-1.63312e+16,6.12323e-17,-0,-1,0,1,-0,1,0,6.12323e-17,6.12294e-27,0,21.9041,0,-1.5708,0
2.24,21.9041,0,1.34124e-15,0,0,0,0,-1.5708,0,1.37156e-26,0,-9121.81,9121.59,303.27,0.45956,0.0725488,6.12323e-17,1e-09,22.0019,1,6.12323e-17,1,0,-1,0,-1.63312e+16,6.12323e-17,-0,-1,0,1,-0,1,0,6.12323e-17,6.12274e-27,0,22.0019,0,-1.5708,0
2.25,22.0019,0,1.34723e-15,0,0,0,0,-1.5708,0,1.37769e-26,0,-9121.59,9121.37,303.271,0.459572,0.072871,6.12323e-17,1e-09,22.0997,1,6.12323e-17,1,0,-1,0,-1.63312e+16,6.12323e-17,-0,-1,0,1,-0,1,0,6.12323e-17,6.12274e-27,0,22.0997,0,-1.5708,0
2.26,22.0997,0,1.35321e-15,0,0,0,0,-1.5708,0,1.38381e-26,0,-9121.37,9121.15,303.272,0.459584,0.0731932,6.12323e-17,1e-09,22.1974,1,6.12323e-17,1,0,-1,0,-1.63312e+16,6.12323e-17,-0,-1,0,1,-0,1,0,6.12323e-17,6.12274e-27,0,22.1974,0,-1.5708,0
2.27,22.1974,0,1.3592e-15,0,0,0,0,-1.5708,0,1.38993e-26,0,-9121.15,9120.92,303.273,0.459597,0.0735154,6.12323e-17,1e-09,22.2952,1,6.12323e-17,1,0,-1,0,-1.63312e+16,6.12323e-17,-0,-1,0,1,-0,1,0,6.12323e-17,6.12274e-27,0,22.2952,0,-1.5708,0
2.28,22.2952,0,1.36519e-15,0,0,0,0,-1.5708,0,1.39606e-26,0,-9120.92,9120.7,303.274,0.459609,0.0738376,6.12323e-17,1e-09,22.393,1,6.12323e-17,1,0,-1,0,-1.63312e+16,6.12323e-17,-0,-1,0,1,-0,1,0,6.12323e-17,6.12294e-27,0,22.393,0,-1.5708,0
2.29,22.393,0,1.37118e-15,0,0,0,0,-1.5708,0,1.40218e-26,0,-9120.7,9120.48,303.275,0.459622,0.0741598,6.12323e-17,1e-09,22.4908,1,6.12323e-17,1,0,-1,0,-1.63312e+16,6.12323e-17,-0,-1,0,1,-0,1,0,6.12323e-17,6.12294e-27,0,22.4908,0,-1.5708,0
2.3,22.4908,0,1.37716e-15,0,0,0,0,-1.5708,0,1.4083e-26,0,-9120.48,9120.25,303.276,0.459634,0.074482,6.12323e-17,1e-09,22.5886,1,6.12323e-17,1,0,-1,0,-1.63312e+16,6.12323e-17,-0,-1,0,1,-0,1,0,6.12323e-17,6.12294e-27,0,22.5886,0,-1.5708,0
2.31,22.5886,0,1.38315e-15,0,0,0,0,-1.5708,0,1.41442e-26,0,-9120.25,9120.03,303.277,0.459647,0.0748042,6.12323e-17,1e-09,22.6864,1,6.12323e-17,1,0,-1,0,-1.63312e+16,6.12323e-17,-0,-1,0,1,-0,1,0,6.12323e-17,6.12294e-27,0,22.6864,0,-1.5708,0
2.32,22.6864,0,1.38914e-15,0,0,0,0,-1.5708,0,1.42055e-26,0,-9120.03,9119.8,303.278,0.459659,0.0751264,6.12323e-17,1e-09,22.7842,1,6.12323e-17,1,0,-1,0,-1.63312e+16,6.12323e-17,-0,-1,0,1,-0,1,0,6.12323e-17,6.12314e-27,0,22.7842,0,-1.5708,0
2.33,22.7842,0,1.39513e-15,0,0,0,0,-1.5708,0,1.42667e-26,0,-9119.8,9119.57,303.279,0.459672,0.0754486,6.12323e-17,1e-09,22.882,1,6.12323e-17,1,0,-1,0,-1.63312e+16,6.12323e-17,-0,-1,0,1,-0,1,0,6.12323e-17,6.12314e-27,0,22.882,0,-1.5708,0
2.34,22.882,0,1.40112e-15,0,0,0,0,-1.5708,0,1.43279e-26,0,-9119.57,9119.34,303.28,0.459685,0.0757708,6.12323e-17,1e-09,22.9797,1,6.12323e-17,1,0,-1,0,-1.63312e+16,6.12323e-17,-0,-1,0,1,-0,1,0,6.12323e-17,6.12294e-27,0,22.9797,0,-1.5708,0
2.35,22.9797,0,1.4071e-15,0,0,0,0,-1.5708,0,1.43892e-26,0,-9119.34,9119.11,303.281,0.459697,0.0760929,6.12323e-17,1e-09,23.0775,1,6.12323e-17,1,0,-1,0,-1.63312e+16,6.12323e-17,-0,-1,0,1,-0,1,0,6.12323e-17,6.12294e-27,0,23.0775,0,-1.5708,0
2.36,23.0775,0,1.41309e-15,0,0,0,0,-1.5708,0,1.44504e-26,0,-9119.11,9118.88,303.282,0.45971,0.0764151,6.12323e-17,1e-09,23.1753,1,6.12323e-17,1,0,-1,0,-1.63312e+16,6.12323e-17,-0,-1,0,1,-0,1,0,6.12323e-17,6.12294e-27,0,23.1753,0,-1.5708,0
2.37,23.1753,0,1.41908e-15,0,0,0,0,-1.5708,0,1.45116e-26,0,-9118.88,9118.65,303.283,0.459723,0.0767373,6.12323e-17,1e-09,23.2731,1,6.12323e-17,1,0,-1,0,-1.63312e+16,6.12323e-17,-0,-1,0,1,-0,1,0,6.12323e-17,6.12294e-27,0,23.2731,0,-1.5708,0
2.38,23.2731,0,1.42507e-15,0,0,0,0,-1.5708,0,1.45728e-26,0,-9118.65,9118.41,303.284,0.459736,0.0770595,6.12323e-17,1e-09,23.3709,1,6.12323e-17,1,0,-1,0,-1.63312e+16,6.12323e-17,-0,-1,0,1,-0,1,0,6.12323e-17,6.12294e-27,0,23.3709,0,-1.5708,0
2.39,23.3709,0,1.43105e-15,0,0,0,0,-1.5708,0,1.46341e-26,0,-9118.41,9118.18,303.285,0.459749,0.0773816,6.12323e-17,1e-09,23.4687,1,6.12323e-17,1,0,-1,0,-1.63312e+16,6.12323e-17,-0,-1,0,1,-0,1,0,6.12323e-17,6.12294e-27,0,23.4687,0,-1.5708,0
2.4,23.4687,0,1.43704e-15,0,0,0,0,-1.5708,0,1.46953e-26,0,-9118.18,9117.94,303.286,0.459762,0.0777038,6.12323e-17,1e-09,23.5665,1,6.12323e-17,1,0,-1,0,-1.63312e+16,6.12323e-17,-0,-1,0,1,-0,1,0,6.12323e-17,6.12294e-27,0,23.5665,0,-1.5708,0
2.41,23.5665,0,1.44303e-15,0,0,0,0,-1.5708,0,1.47565e-26,0,-9117.94,9117.71,303.287,0.459775,0.078026,6.12323e-17,1e-09,23.6642,1,6.12323e-17,1,0,-1,0,-1.63312e+16,6.12323e-17,-0,-1,0,1,-0,1,0,6.12323e-17,6.12294e-27,0,23.6642,0,-1.5708,0
2.42,23.6642,0,1.44902e-15,0,0,0,0,-1.5708,0,1.48178e-26,0,-9117.71,9117.47,303.288,0.459788,0.0783481,6.12323e-17,1e-09,23.762,1,6.12323e-17,1,0,-1,0,-1.63312e+16,6.12323e-17,-0,-1,0,1,-0,1,0,6.12323e-17,6.12294e-27,0,23.762,0,-1.5708,0
2.43,23.762,0,1.455e-15,0,0,0,0,-1.5708,0,1.4879e-26,0,-9117.47,9117.23,303.289,0.459801,0.0786703,6.12323e-17,1e-09,23.8598,1,6.12323e-17,1,0,-1,0,-1.63312e+16,6.12323e-17,-0,-1,0,1,-0,1,0,6.12323e-17,6.12274e-27,0,23.8598,0,-1.5708,0
2.44,23.8598,0,1.46099e-15,0,0,0,0,-1.5708,0,1.49402e-26,0,-9117.23,9116.99,303.29,0.459815,0.0789924,6.12323e-17,1e-09,23.9576,1,6.12323e-17,1,0,-1,0,-1.63312e+16,6.12323e-17,-0,-1,0,1,-0,1,0,6.12323e-17,6.12274e-27,0,23.9576,0,-1.5708,0
2.45,23.9576,0,1.46698e-15,0,0,0,0,-1.5708,0,1.50015e-26,0,-9116.99,9116.75,303.291,0.459828,0.0793146,6.12323e-17,1e-09,24.0554,1,6.12323e-17,1,0,-1,0,-1.63312e+16,6.12323e-17,-0,-1,0,1,-0,1,0,6.12323e-17,6.12294e-27,0,24.0554,0,-1.5708,0
2.46,24.0554,0,1.47297e-15,0,0,0,0,-1.5708,0,1.50627e-26,0,-9116.75,9116.51,303.292,0.459841,0.0796367,6.12323e-17,1e-09,24.1532,1,6.12323e-17,1,0,-1,0,-1.63312e+16,6.12323e-17,-0,-1,0,1,-0,1,0,6.12323e-17,6.12294e-27,0,24.1532,0,-1.5708,0
2.47,24.1532,0,1.47896e-15,0,0,0,0,-1.5708,0,1.51239e-26,0,-9116.51,9116.27,303.293,0.459855,0.0799589,6.12323e-17,1e-09,24.251,1,6.12323e-17,1,0,-1,0,-1.63312e+16,6.12323e-17,-0,-1,0,1,-0,1,0,6.12323e-17,6.12314e-27,0,24.251,0,-1.5708,0
2.48,24.251,0,1.48494e-15,0,0,0,0,-1.5708,0,1.51851e-26,0,-9116.27,9116.03,303.294,0.459868,0.080281,6.12323e-17,1e-09,24.3488,1,6.12323e-17,1,0,-1,0,-1.63312e+16,6.12323e-17,-0,-1,0,1,-0,1,0,6.12323e-17,6.12314e-27,0,24.3488,0,-1.5708,0
